id,Stop_name,Lat,Long,stop_id,is_fixed_stop,stop_desc
1,at Blk 649A,1.337710664,103.6972529,377906,t,Blk 649A
2,outside Hall 1,1.345755085,103.6878008,378233,t,Hall 1
3,outside Canteen 2,1.348946031,103.6856979,378237,t,Canteen 2
4,at Student Services Centre,1.345738996,103.6828494,383011,t,Student Services Centre
5,at Administration Building,1.344891652,103.6815754,383013,t,Administration Building
6,opp Canteen 2,1.349042564,103.685478,383014,t,Canteen 2
7,outside Canteen A & Lee Wee Nam Library / Opp NIE,1.347943163,103.6803764,378224,t,Canteen A & Lee Wee Nam Library / Opp NIE
8,outside School of Biological Sciences,1.344510883,103.6786491,382995,t,School of Biological Sciences
9,outside Wee Kim Wee School of Communications & Information (S1),1.342076106,103.6791426,378227,t,Wee Kim Wee School of Communications & Information (S1)
10,outside Hall 7,1.339963105,103.6816692,378228,t,Hall 7
11,outside Innovation Centre Canteen B & Chinese Heritage Centre,1.34248369,103.683697,378229,t,Innovation Centre Canteen B & Chinese Heritage Centre
12,outside Hall 4,1.343674264,103.6861861,378230,t,Hall 4
13,opp Nanyang Heights / Beside Hall 9,1.351504148,103.6857784,382998,t,Nanyang Heights / Beside Hall 9
14,outside Graduate Hall / Hall 11,1.355944646,103.6862317,378202,t,Graduate Hall / Hall 11
15,outside Hall 12 & 13 / Near Hall 3 & 16,1.351917093,103.6804891,378204,t,Hall 12 & 13 / Near Hall 3 & 16
16,opp Lee Wee Nam Library & Canteen A / Outside NIE,1.347943163,103.6803764,378225,t,Lee Wee Nam Library & Canteen A / Outside NIE
17,opp Hall 3 & 16,1.350292127,103.6807224,382999,t,Hall 3 & 16
18,opp Hall 14 & 15,1.35317738,103.6817604,378203,t,Hall 14 & 15
19,opp Hall 10 & 11,1.354384037,103.6870658,378222,t,Hall 10 & 11
20,outside Nanyang Heights / Opp Hall 8 & 9,1.350908863,103.6857677,383003,t,Nanyang Heights / Opp Hall 8 & 9
21,outside Hall 6 / Opp Hall 2,1.347111908,103.6865562,378234,t,Hall 6 / Opp Hall 2
22,opp Hall 5,1.343754708,103.6869049,383004,t,Hall 5
23,opp Innovation Centre & Canteen B / Near Chinese Heritage Centre,1.341856226,103.6838365,383006,t,Innovation Centre & Canteen B / Near Chinese Heritage Centre
24,opp School of Physical & Mathematical Sciences,1.341904492,103.6811864,383009,t,School of Physical & Mathematical Sciences
25,opp Wee Kim Wee School of Communications & Information (S1),1.342076106,103.6791426,383010,t,Wee Kim Wee School of Communications & Information (S1)
26,opp School of Civil & Environmental Engineering (N1),1.345830166,103.6784184,378226,t,School of Civil & Environmental Engineering (N1)
27,at ADM Hall 8,1.349975714,103.6839491,378207,t,ADM Hall 8
28,outside School of Civil & Environmental Engineering (N1),1.346087587,103.6784399,383015,t,School of Civil & Environmental Engineering (N1)
29,outside Hall 5,1.344156929,103.6876345,383018,t,Hall 5
30,at Boon Lay Interchange,1.339978,103.705128,22009,t,Boon Lay Interchange
31,at Blk 662A,1.337523,103.702292,22501,t,Blk 662A
32,at Blk 658C,1.337494,103.700007,22511,t,Blk 658C
33,at Blk 651A,1.337477,103.697449,22521,t,Blk 651A
34,opp Blk 643,1.338319,103.695626,22451,t,Blk 643
35,at Blk 978,1.340608,103.694404,27301,t,Blk 978
36,at Blk 948,1.343976,103.691666,27321,t,Blk 948
37,outside Hall 1,1.345786,103.687962,27281,t,Hall 1
38,opp Hall 6 / Outside Hall 2,1.347846,103.686598,27291,t,Hall 6 / Outside Hall 2
39,outside Canteen 2,1.348929,103.685628,27311,t,Canteen 2
40,outside School of Art Design and Media,1.34987,103.68378,27061,t,School of Art Design and Media
41,outside Canteen A & Lee Wee Nam Library / Opp NIE,1.347962,103.680743,27211,t,Canteen A & Lee Wee Nam Library / Opp NIE
42,outside School of Civil & Environmental Engineering (N1),1.346044,103.67873,27221,t,School of Civil & Environmental Engineering (N1)
43,outside Wee Kim Wee School of Communications & Information (S1),1.342017,103.679559,27231,t,Wee Kim Wee School of Communications & Information (S1)
44,outside Hall 7,1.340107,103.682112,27241,t,Hall 7
45,outside Innovation Centre Canteen B & Chinese Heritage Centre,1.342367,103.683969,27251,t,Innovation Centre Canteen B & Chinese Heritage Centre
46,outside Hall 4,1.343878,103.686362,27261,t,Hall 4
47,at Blk 840,1.344001,103.69184,27329,t,Blk 840
48,at Blk 705,1.340909,103.694345,27309,t,Blk 705
49,at Blk 643,1.339114,103.695474,22459,t,Blk 643
50,at Blk 649A,1.337678,103.697287,22529,t,Blk 649A
51,at Blk 608,1.337706,103.699952,22519,t,Blk 608
52,at Blk 663E,1.337951,103.7029,22509,t,Blk 663E
53,at Blk 683A,1.34232,103.7052,22489,t,Blk 683A
54,at Blk 680C,1.345256,103.706075,21371,t,Blk 680C
55,at Civil Defence School,1.349139,103.703923,27091,t,Civil Defence School
56,at Westville,1.352678,103.701161,27101,t,Westville
57,before Nanyang Avenue,1.356841,103.695246,27121,t,Nanyang Avenue
58,before Lorong Danau,1.355995,103.69194,27171,t,Lorong Danau
59,at PUB Sub station,1.355695,103.688357,27181,t,PUB Sub station
60,outside Graduate Hall / Hall 11,1.356051,103.686185,27011,t,Graduate Hall / Hall 11
61,outside Hall 14 & 15,1.353277,103.681895,27021,t,Hall 14 & 15
62,outside Hall 12 & 13 / Near Hall 3 & 16,1.351839,103.680497,27031,t,Hall 12 & 13 / Near Hall 3 & 16
63,outside NIE Carpark Y,1.350634,103.678594,27041,t,NIE Carpark Y
64,outside NIE Library,1.348049,103.676913,27051,t,NIE Library
65,opp Lee Wee Nam Library & Canteen A / Outside NIE,1.347949,103.680416,27219,t,Lee Wee Nam Library & Canteen A / Outside NIE
66,opp School of Art Design and Media / Beside Hall 8,1.350195,103.684197,27069,t,School of Art Design and Media / Beside Hall 8
67,opp Nanyang Heights / Beside Hall 9,1.351511,103.685674,27209,t,Nanyang Heights / Beside Hall 9
68,outside Hall 10 & 11,1.35449,103.686773,27199,t,Hall 10 & 11
69,opp PUB Sub station,1.35646,103.689087,27189,t,PUB Sub station
70,after Lorong Danau,1.356065,103.692018,27179,t,Lorong Danau
71,before Jalan Bahar,1.356866,103.694299,27169,t,Jalan Bahar
72,Opposite Nanyang Avenue,1.357326,103.695628,27129,t,Nanyang Avenue
73,opp Westville,1.353165,103.700864,27109,t,Westville
74,opp SCDF Jalan Bahar Camp,1.350211,103.703609,27099,t,SCDF Jalan Bahar Camp
75,at Blk 263,1.345238,103.706496,21379,t,Blk 263
76,at Blk 691A Multi Storey Car Park,1.342487,103.705433,22481,t,Blk 691A Multi Storey Car Park
77,at Boon Lay Station,1.3385559,103.7058277,EW27,t,Boon Lay Station
78,at Pioneer Station,1.3373141,103.6968636,EW28,t,Pioneer Station
79,at Hall 12,1.35066,103.68041,2GT1,t,Hall 12 (2GT1)
80,at Hall 13,1.352008,103.681624,2GT2,t,Hall 13 (2GT2)
81,at Hall 14,1.352792,103.682587,2GT3,t,Hall 14 (2GT3)
82,Pod@NTU Research Tecno Plaza,1.343132,103.679227,DST-SG637553-01,t,Pod@NTU Research Tecno Plaza
83,Pod@NTU LWN Library,1.348093,103.68086,DST-SG637331-01,t,Pod@NTU LWN Library
84,Pod@NTU Hall 12,1.350876,103.680556,DST-SG637658-01,t,Pod@NTU Hall 12
85,Pod@NTU North-Hill Residence,1.354575,103.687494,DST-SG636958-01,t,Pod@NTU North-Hill Residence
86,Pod@NTU SRC,1.348969,103.687948,DST-SG639798-01,t,Pod@NTU SRC
87,Pod@NTU Canteen 2,1.34878,103.68554,DST-SG639548-01,t,Pod@NTU Canteen 2
88,Pod@NTU HSS,1.343545,103.683331,DST-SG637332-01,t,Pod@NTU HSS
89,Pod@Hall 8,1.351306,103.685664,DST-SG639812-01,t,Pod@Hall 8
90,Pod@CleanTech One,1.355038,103.692553,DST-SG637141-01,t,Pod@CleanTech One
91,Pod@CleanTech Two,1.355018,103.693208,DST-SG637143-01,t,Pod@CleanTech Two
92,0-N Room (EMRCL),1.345716808,103.6806338,,f,0-N Room (EMRCL)
93,1st Year Teaching Laboratory (PAP),1.341656633,103.6822629,,f,1st Year Teaching Laboratory (PAP)
94,2D Laboratory (ADM),1.349612256,103.6839264,,f,2D Laboratory (ADM)
95,2nd Year Teaching Laboratory (PAP),1.341656633,103.6822629,,f,2nd Year Teaching Laboratory (PAP)
96,3D Laboratory 1 (ADM),1.349546438,103.6838237,,f,3D Laboratory 1 (ADM)
97,3D Laboratory 2 (ADM),1.349546438,103.6838237,,f,3D Laboratory 2 (ADM)
98,3D Projection Laboratory (ADM),1.349546438,103.6838237,,f,3D Projection Laboratory (ADM)
99,3rd Year Teaching Laboratory (PAP),1.341656633,103.6822629,,f,3rd Year Teaching Laboratory (PAP)
100,AAS (NMR / Central Instrument Lab),1.342234716,103.6817584,,f,AAS (NMR / Central Instrument Lab)
101,Absorption Testing Room (Thermal & Fluids Lab),1.347049259,103.6828082,,f,Absorption Testing Room (Thermal & Fluids Lab)
102,Acad Office (WKWCSI 02),1.342143259,103.6801698,,f,Acad Office (WKWCSI 02)
103,Acad Office (WKWSCI 04),1.342143259,103.6801698,,f,Acad Office (WKWSCI 04)
104,Acad Room / Work Room (EOS),1.346531289,103.6792039,,f,Acad Room / Work Room (EOS)
105,Acad Room (SCI HQ),1.342143259,103.6801698,,f,Acad Room (SCI HQ)
106,Acad Room 2.1 (ADM),1.349546438,103.6838237,,f,Acad Room 2.1 (ADM)
107,Acad Room 2.2 (ADM),1.349546438,103.6838237,,f,Acad Room 2.2 (ADM)
108,Acad Room 2.3 (ADM),1.349546438,103.6838237,,f,Acad Room 2.3 (ADM)
109,Acad Room 2.4 (ADM),1.349546438,103.6838237,,f,Acad Room 2.4 (ADM)
110,Acad Room 2.5 (ADM),1.349546438,103.6838237,,f,Acad Room 2.5 (ADM)
111,Acad Room 2.6 (ADM),1.349546438,103.6838237,,f,Acad Room 2.6 (ADM)
112,Acad Room 2.7 (ADM),1.349546438,103.6838237,,f,Acad Room 2.7 (ADM)
113,Acad Room 2.8 (ADM),1.349546438,103.6838237,,f,Acad Room 2.8 (ADM)
114,Acad Room 3.1 (ADM),1.349546438,103.6838237,,f,Acad Room 3.1 (ADM)
115,Acad Room 3.10 (ADM),1.349546438,103.6838237,,f,Acad Room 3.10 (ADM)
116,Acad Room 3.11 (ADM),1.349546438,103.6838237,,f,Acad Room 3.11 (ADM)
117,Acad Room 3.12 (ADM),1.349546438,103.6838237,,f,Acad Room 3.12 (ADM)
118,Acad Room 3.2 (ADM),1.349546438,103.6838237,,f,Acad Room 3.2 (ADM)
119,Acad Room 3.3 (ADM),1.349546438,103.6838237,,f,Acad Room 3.3 (ADM)
120,Acad Room 3.4 (ADM),1.349546438,103.6838237,,f,Acad Room 3.4 (ADM)
121,Acad Room 3.5 (ADM),1.349546438,103.6838237,,f,Acad Room 3.5 (ADM)
122,Acad Room 3.6 (ADM),1.349546438,103.6838237,,f,Acad Room 3.6 (ADM)
123,Acad Room 3.7 (ADM),1.349546438,103.6838237,,f,Acad Room 3.7 (ADM)
124,Acad Room 3.8 (ADM),1.349546438,103.6838237,,f,Acad Room 3.8 (ADM)
125,Acad Room 3.9 (ADM),1.349546438,103.6838237,,f,Acad Room 3.9 (ADM)
126,Acad Room 4.1 (ADM),1.349546438,103.6838237,,f,Acad Room 4.1 (ADM)
127,Acad Room 4.10 (ADM),1.349546438,103.6838237,,f,Acad Room 4.10 (ADM)
128,Acad Room 4.11 (ADM),1.349546438,103.6838237,,f,Acad Room 4.11 (ADM)
129,Acad Room 4.12 (ADM),1.349546438,103.6838237,,f,Acad Room 4.12 (ADM)
130,Acad Room 4.13 (ADM),1.349546438,103.6838237,,f,Acad Room 4.13 (ADM)
131,Acad Room 4.14 (ADM),1.349546438,103.6838237,,f,Acad Room 4.14 (ADM)
132,Acad Room 4.15 (ADM),1.349546438,103.6838237,,f,Acad Room 4.15 (ADM)
133,Acad Room 4.16 (ADM),1.349546438,103.6838237,,f,Acad Room 4.16 (ADM)
134,Acad Room 4.17 (ADM),1.349546438,103.6838237,,f,Acad Room 4.17 (ADM)
135,Acad Room 4.18 (ADM),1.349546438,103.6838237,,f,Acad Room 4.18 (ADM)
136,Acad Room 4.19 (ADM),1.349546438,103.6838237,,f,Acad Room 4.19 (ADM)
137,Acad Room 4.2 (ADM),1.349546438,103.6838237,,f,Acad Room 4.2 (ADM)
138,Acad Room 4.20 (ADM),1.349546438,103.6838237,,f,Acad Room 4.20 (ADM)
139,Acad Room 4.21 (ADM),1.349546438,103.6838237,,f,Acad Room 4.21 (ADM)
140,Acad Room 4.22 (ADM),1.349546438,103.6838237,,f,Acad Room 4.22 (ADM)
141,Acad Room 4.23 (ADM),1.349546438,103.6838237,,f,Acad Room 4.23 (ADM)
142,Acad Room 4.24 (ADM),1.349546438,103.6838237,,f,Acad Room 4.24 (ADM)
143,Acad Room 4.25 (ADM),1.349546438,103.6838237,,f,Acad Room 4.25 (ADM)
144,Acad Room 4.26 (ADM),1.349546438,103.6838237,,f,Acad Room 4.26 (ADM)
145,Acad Room 4.27 (ADM),1.349546438,103.6838237,,f,Acad Room 4.27 (ADM)
146,Acad Room 4.28 (ADM),1.349546438,103.6838237,,f,Acad Room 4.28 (ADM)
147,Acad Room 4.29 (ADM),1.349546438,103.6838237,,f,Acad Room 4.29 (ADM)
148,Acad Room 4.3 (ADM),1.349546438,103.6838237,,f,Acad Room 4.3 (ADM)
149,Acad Room 4.30 (ADM),1.349546438,103.6838237,,f,Acad Room 4.30 (ADM)
150,Acad Room 4.31 (ADM),1.349546438,103.6838237,,f,Acad Room 4.31 (ADM)
151,Acad Room 4.32 (ADM),1.349546438,103.6838237,,f,Acad Room 4.32 (ADM)
152,Acad Room 4.33 (ADM),1.349546438,103.6838237,,f,Acad Room 4.33 (ADM)
153,Acad Room 4.34 (ADM),1.349546438,103.6838237,,f,Acad Room 4.34 (ADM)
154,Acad Room 4.4 (ADM),1.349546438,103.6838237,,f,Acad Room 4.4 (ADM)
155,Acad Room 4.5 (ADM),1.349546438,103.6838237,,f,Acad Room 4.5 (ADM)
156,Acad Room 4.6 (ADM),1.349546438,103.6838237,,f,Acad Room 4.6 (ADM)
157,Acad Room 4.7 (ADM),1.349546438,103.6838237,,f,Acad Room 4.7 (ADM)
158,Acad Room 4.8 (ADM),1.349546438,103.6838237,,f,Acad Room 4.8 (ADM)
159,Acad Room 4.9 (ADM),1.349546438,103.6838237,,f,Acad Room 4.9 (ADM)
160,Acad Room B1.1 (ADM),1.349546438,103.6838237,,f,Acad Room B1.1 (ADM)
161,Acad Room B1.2 (ADM),1.349546438,103.6838237,,f,Acad Room B1.2 (ADM)
162,Acad Room B1.3 (ADM),1.349546438,103.6838237,,f,Acad Room B1.3 (ADM)
163,Acad Room B1.4 (ADM),1.349546438,103.6838237,,f,Acad Room B1.4 (ADM)
164,Acad Room B1.5 (ADM),1.349546438,103.6838237,,f,Acad Room B1.5 (ADM)
165,Acad Room B1.6 (ADM),1.349546438,103.6838237,,f,Acad Room B1.6 (ADM)
166,Academic Block North,1.346619104,103.6822296,,f,Academic Block North
167,Academic Learning Commons 1,1.346555506,103.6804353,,f,Academic Learning Commons 1
168,Academic Learning Commons 2,1.346560062,103.680572,,f,Academic Learning Commons 2
169,Academic Services Room (SCSE),1.346178189,103.6823365,,f,Academic Services Room (SCSE)
170,Ace Linking Pte Ltd (ITTO),1.341087626,103.6832693,,f,Ace Linking Pte Ltd (ITTO)
171,Access Grid Conference Room,1.34619402,103.6829487,,f,Access Grid Conference Room
172,Acid Room (EMRCL),1.345718115,103.6805789,,f,Acid Room (EMRCL)
173,Acoustical Technologies Pte Ltd (ITTO),1.341087626,103.6832693,,f,Acoustical Technologies Pte Ltd (ITTO)
174,Activity Room 1 (NYH),1.349968259,103.6868935,,f,Activity Room 1 (NYH)
175,Activity Room 2 (NYH),1.349968259,103.6868935,,f,Activity Room 2 (NYH)
176,Activity Room 3 (NYH),1.349968259,103.6868935,,f,Activity Room 3 (NYH)
177,Activity Room 4 (NYH),1.349968259,103.6868935,,f,Activity Room 4 (NYH)
178,Activity Room 5 (NYH),1.349968259,103.6868935,,f,Activity Room 5 (NYH)
179,Activity Room 6 (NYH),1.349968259,103.6868935,,f,Activity Room 6 (NYH)
180,Activity Room 7 (NYH),1.349968259,103.6868935,,f,Activity Room 7 (NYH)
181,Activity Room 8 (NYH),1.349968259,103.6868935,,f,Activity Room 8 (NYH)
182,ACTS Project (CAIS),1.34619402,103.6829487,,f,ACTS Project (CAIS)
183,ADM Student Club,1.349546438,103.6838237,,f,ADM Student Club
184,Advanced Design and Modeling Laboratory 1,1.347055797,103.682909,,f,Advanced Design and Modeling Laboratory 1
185,Advanced Design And Modeling Laboratory 2,1.347055797,103.682909,,f,Advanced Design And Modeling Laboratory 2
186,Advanced Electroacoustics Pte Ltd (ITTO),1.341087626,103.6832693,,f,Advanced Electroacoustics Pte Ltd (ITTO)
187,Advanced Remanufacturing Technology Centre (ARTC),1.34706795,103.6831446,,f,Advanced Remanufacturing Technology Centre (ARTC)
188,Advanced RFIC @ NTU,1.342931569,103.6803646,,f,Advanced RFIC @ NTU
189,Advanced Satellite & Space Exploration Laboratory,1.347550904,103.6824493,,f,Advanced Satellite & Space Exploration Laboratory
190,Advanced Video Editing Suite (WKWSCI),1.342143259,103.6801698,,f,Advanced Video Editing Suite (WKWSCI)
191,Aerodynamics Laboratory,1.347571219,103.6824459,,f,Aerodynamics Laboratory
192,Aerospace Centre of Excellence,1.347550904,103.6824493,,f,Aerospace Centre of Excellence
193,Aerospace Electronics Laboratory (EEE),1.343403748,103.6807964,,f,Aerospace Electronics Laboratory (EEE)
194,Aerospace Fluid Power Laboratory,1.347550904,103.6824493,,f,Aerospace Fluid Power Laboratory
195,Aerospace Structures Laboratory,1.347550904,103.6824493,,f,Aerospace Structures Laboratory
196,AFM,1.345316444,103.6793572,,f,AFM
197,AFM Room (Organic Materials Service Lab),1.346621453,103.6829539,,f,AFM Room (Organic Materials Service Lab)
198,AHU - BioE B2,1.345270792,103.6803833,,f,AHU - BioE B2
199,AHU - BioE B3,1.345270792,103.6803833,,f,AHU - BioE B3
200,AHU - BioE B4,1.345270792,103.6803833,,f,AHU - BioE B4
201,AHU - BioE B4M,1.345270792,103.6803833,,f,AHU - BioE B4M
202,AHU - CBE 01,1.345316444,103.6793572,,f,AHU - CBE 01
203,AHU - CBE B1,1.345316444,103.6793572,,f,AHU - CBE B1
204,AHU - CBE B2,1.345316444,103.6793572,,f,AHU - CBE B2
205,AHU - CBE B3,1.345316444,103.6793572,,f,AHU - CBE B3
206,AHU - CBE B4,1.345316444,103.6793572,,f,AHU - CBE B4
207,AHU - CBE B5,1.345316444,103.6793572,,f,AHU - CBE B5
208,AHU - CoE,1.345270792,103.6803833,,f,AHU - CoE
209,AHU Room (SBS 01),1.344876157,103.6793605,,f,AHU Room (SBS 01)
210,AHU Room (SBS B1),1.344876157,103.6793605,,f,AHU Room (SBS B1)
211,AHU Room for Clean Room (CMMS - Micromachine Lab 1),1.347438048,103.6828124,,f,AHU Room for Clean Room (CMMS - Micromachine Lab 1)
212,AIP System Room,1.340384278,103.6824642,,f,AIP System Room
213,Air Lock Room (AH),1.345147105,103.6783908,,f,Air Lock Room (AH)
214,Aircraft Noise & Vibration Laboratory,1.347550904,103.6824493,,f,Aircraft Noise & Vibration Laboratory
215,Aircraft Hangar,1.347589994,103.6824381,,f,Aircraft Hangar
216,Airspace Design & Analysis Lab,1.347550904,103.6824493,,f,Airspace Design & Analysis Lab
217,ALC Journal Room,1.347972379,103.6776147,,f,ALC Journal Room
218,Alpha Globo Pte Ltd (ITTO),1.341087626,103.6832693,,f,Alpha Globo Pte Ltd (ITTO)
219,Alpha Tech Holding Pte Ltd (ITTO),1.341087626,103.6832693,,f,Alpha Tech Holding Pte Ltd (ITTO)
220,AMRC Applied Research Laboratory,1.346152402,103.6816821,,f,AMRC Applied Research Laboratory
221,Analytical Laboratory (SPMS),1.344876157,103.6793605,,f,Analytical Laboratory (SPMS)
222,Analytical Research Laboratory (CBC),1.342237215,103.6817581,,f,Analytical Research Laboratory (CBC)
223,Anechoic Chamber,1.347556794,103.6824599,,f,Anechoic Chamber
224,Animation Archive (ADM),1.349546438,103.6838237,,f,Animation Archive (ADM)
225,Ante Room (AH),1.345147105,103.6783908,,f,Ante Room (AH)
226,Arms Room (NYH),1.349968259,103.6868935,,f,Arms Room (NYH)
227,"Art, Design & Media Library (ADM)",1.349733353,103.6845595,,f,"Art, Design & Media Library (ADM)"
228,Art Gallery 1 (NIE),1.347668986,103.6785035,,f,Art Gallery 1 (NIE)
229,Art Gallery 2 (NIE),1.347528455,103.6784929,,f,Art Gallery 2 (NIE)
230,Art Pastry @ ADM,1.349235619,103.6837569,,f,Art Pastry @ ADM
231,ARTC,1.345316444,103.6793572,,f,ARTC
232,ASE Computional Geophysic Lab,1.346551345,103.6792796,,f,ASE Computional Geophysic Lab
233,ASE Seminar Room 1,1.346555428,103.6793797,,f,ASE Seminar Room 1
234,ASE Seminar Room 2,1.346551345,103.6792,,f,ASE Seminar Room 2
235,ASE/EOS Rock Preparation Laboratory,1.346056175,103.679156,,f,ASE/EOS Rock Preparation Laboratory
236,ASE/EOS Rock Work Room,1.346046712,103.6791726,,f,ASE/EOS Rock Work Room
237,Asian Business Case Centre (NBS),1.343799871,103.6829012,,f,Asian Business Case Centre (NBS)
238,Asian Media Information and Communication Centre (AMIC),1.342167792,103.6802374,,f,Asian Media Information and Communication Centre (AMIC)
239,Asian School of the Environment (ASE) Admin Office,1.346556769,103.6793291,,f,Asian School of the Environment (ASE) Admin Office
240,Athena Reading Room,1.34767875,103.6810154,,f,Athena Reading Room
241,Audio Main (WKWSCI),1.342143259,103.6801698,,f,Audio Main (WKWSCI)
242,Audio Video Control Room (Digital Photo Studio),1.342143259,103.6801698,,f,Audio Video Control Room (Digital Photo Studio)
243,Audio Visual Room (GL),1.345701515,103.6793237,,f,Audio Visual Room (GL)
244,Auditorium (ADM 02),1.349546438,103.6838237,,f,Auditorium (ADM 02)
245,Auditorium (ADM 03),1.349546438,103.6838237,,f,Auditorium (ADM 03)
246,Auditorium (CHC),1.343898594,103.6842932,,f,Auditorium (CHC)
247,Auditorium (HSS B2),1.343694084,103.6834861,,f,Auditorium (HSS B2)
248,Auditorium Control Room (HSS),1.343704891,103.6834806,,f,Auditorium Control Room (HSS)
249,Autonomous Robotics Research Laboratory (EEE),1.342816603,103.6814434,,f,Autonomous Robotics Research Laboratory (EEE)
250,AV / Control Room,1.345270792,103.6803833,,f,AV / Control Room
251,AV Lecture Room B1.1 (ADM),1.349347907,103.6836674,,f,AV Lecture Room B1.1 (ADM)
252,AV Lecture Room B1.2 (ADM),1.349293676,103.6836514,,f,AV Lecture Room B1.2 (ADM)
253,AV Media Dept (ADM),1.349546438,103.6838237,,f,AV Media Dept (ADM)
254,AV Room (ADM) - former Green Room,1.349546438,103.6838237,,f,AV Room (ADM) - former Green Room
255,Avid 9 (WKWSCI),1.342143259,103.6801698,,f,Avid 9 (WKWSCI)
256,Avid 10 (WKWSCI),1.342143259,103.6801698,,f,Avid 10 (WKWSCI)
257,Avid 11 (WKWSCI),1.342143259,103.6801698,,f,Avid 11 (WKWSCI)
258,Avid 12 (WKWSCI),1.342143259,103.6801698,,f,Avid 12 (WKWSCI)
259,AXS Station - Food Court 2,1.34835672,103.6854897,,f,AXS Station - Food Court 2
260,AXS Station - North Spine,1.347490711,103.6808063,,f,AXS Station - North Spine
261,AXS Station - South Spine,1.342663265,103.6822804,,f,AXS Station - South Spine
262,Ball Milling Room,1.340392713,103.6823722,,f,Ball Milling Room
263,Band Room (NIE),1.34826776,103.6788307,,f,Band Room (NIE)
264,Basketball Courts (NIE),1.350443,103.67868,,f,Basketball Courts (NIE)
265,Basketball Courts (SRC),1.348466,103.688568,,f,Basketball Courts (SRC)
266,BCZ Pte Ltd (ITTO),1.341087626,103.6832693,,f,BCZ Pte Ltd (ITTO)
267,Binder & Plasticiser Laboratory (EMRCL),1.345718115,103.6802758,,f,Binder & Plasticiser Laboratory (EMRCL)
268,Bio-Analytical Laboratory,1.345327602,103.6803341,,f,Bio-Analytical Laboratory
269,Bio-General Laboratory,1.345327602,103.6803341,,f,Bio-General Laboratory
270,Bio-Instrumentation Laboratory,1.345327602,103.6803341,,f,Bio-Instrumentation Laboratory
271,Bio-Medical System Design Laboratory,1.345327602,103.6803341,,f,Bio-Medical System Design Laboratory
272,Bio-Nano Characterization Laboratory,1.345270792,103.6803833,,f,Bio-Nano Characterization Laboratory
273,Bio-Nano Science Laboratory,1.345327602,103.6803341,,f,Bio-Nano Science Laboratory
274,Bio-Optics,1.345270792,103.6803833,,f,Bio-Optics
275,Bio-Physics Laboratory (PAP),1.341656633,103.6822629,,f,Bio-Physics Laboratory (PAP)
276,Bio-Physics Teaching Laboratory (PAP),1.341656633,103.6822629,,f,Bio-Physics Teaching Laboratory (PAP)
277,Bio-System Computing Laboratory,1.345327602,103.6803341,,f,Bio-System Computing Laboratory
278,Bio-Technology Laboratory,1.345316444,103.6793572,,f,Bio-Technology Laboratory
279,Bio-Testing Room (Biological & Chemical Lab),1.347005645,103.6821478,,f,Bio-Testing Room (Biological & Chemical Lab)
280,Biochemistry Laboratory 1 (SBS),1.344635375,103.6794004,,f,Biochemistry Laboratory 1 (SBS)
281,Biochemistry Laboratory 2 (SBS),1.344635375,103.6794004,,f,Biochemistry Laboratory 2 (SBS)
282,Biochemistry Laboratory 3 (SBS),1.344635375,103.6794004,,f,Biochemistry Laboratory 3 (SBS)
283,Biochemistry Laboratory 4 (SBS),1.344635375,103.6794004,,f,Biochemistry Laboratory 4 (SBS)
284,Biochemistry Laboratory 5 (SBS),1.344635375,103.6794004,,f,Biochemistry Laboratory 5 (SBS)
285,Biochemistry Laboratory 6 (SBS),1.344635375,103.6794004,,f,Biochemistry Laboratory 6 (SBS)
286,Biocomputational Laboratory,1.345327602,103.6803341,,f,Biocomputational Laboratory
287,Biofuel Laboratory (IESE),1.341087626,103.6832693,,f,Biofuel Laboratory (IESE)
288,BioInformatics Research Centre (BIRC),1.345696176,103.6813358,,f,BioInformatics Research Centre (BIRC)
289,Biological & Chemical Laboratory,1.347011591,103.6822371,,f,Biological & Chemical Laboratory
290,Biological Process Lab,1.347674681,103.6829267,,f,Biological Process Lab
291,Biological Reactor Room (EL2),1.345615591,103.6791851,,f,Biological Reactor Room (EL2)
292,Biomaterial & Tissue Engineering Laboratory,1.345327602,103.6803341,,f,Biomaterial & Tissue Engineering Laboratory
293,Biomaterial Processing Area,1.345316444,103.6793572,,f,Biomaterial Processing Area
294,Biomaterials / Cell Culture Laboratory,1.346589907,103.682957,,f,Biomaterials / Cell Culture Laboratory
295,BioMedical Electronics Laboratory,1.345270666,103.6803468,,f,BioMedical Electronics Laboratory
296,BioMedical Engineering Research Centre (BMERC),1.343365345,103.6795828,,f,BioMedical Engineering Research Centre (BMERC)
297,BioMedical Instrumentation Laboratory,1.342811166,103.6808943,,f,BioMedical Instrumentation Laboratory
298,Biometrics and Forensics Lab,1.345660564,103.680815,,f,Biometrics and Forensics Lab
299,BioPhotonics Laboratory,1.345327602,103.6803341,,f,BioPhotonics Laboratory
300,BioReactor (SCELSE),1.345649738,103.6793141,,f,BioReactor (SCELSE)
301,Block CW3,1.346123807,103.6801323,,f,Block CW3
302,Block CW4,1.346109095,103.6795659,,f,Block CW4
303,Block HW1,1.340387,103.682367,,f,Block HW1
304,Block HW2,1.346117,103.679845,,f,Block HW2
305,Block HW3,1.348073,103.682431,,f,Block HW3
306,Block N1,1.345680957,103.6797983,,f,Block N1
307,Block N1.1,1.34607452,103.679162,,f,Block N1.1
308,Block N2,1.346535026,103.6799227,,f,Block N2
309,Block N2.1,1.346888219,103.6802151,,f,Block N2.1
310,Block N3,1.34706241,103.6823144,,f,Block N3
311,Block N3.1,1.347674456,103.6828823,,f,Block N3.1
312,Block N3.2,1.347593404,103.6824656,,f,Block N3.2
313,Block N4,1.346188984,103.6823697,,f,Block N4
314,Block N4.1,1.346638603,103.6829758,,f,Block N4.1
315,Block NS1,1.345309396,103.6808736,,f,Block NS1
316,Block NS2,1.346154745,103.6808392,,f,Block NS2
317,Block NS3,1.347560938,103.6809978,,f,Block NS3
318,Block NS4,1.346397426,103.681301,,f,Block NS4
319,Block S1,1.343067174,103.6804899,,f,Block S1
320,Block S2,1.342451597,103.6811083,,f,Block S2
321,Block S2.1,1.342835069,103.680908,,f,Block S2.1
322,Block S2.2,1.343136239,103.6811669,,f,Block S2.2
323,Block S3,1.343844149,103.6829301,,f,Block S3
324,Block S3.1,1.344536451,103.6830341,,f,Block S3.1
325,Block S3.2,1.343854626,103.6823911,,f,Block S3.2
326,Block S4,1.344295886,103.6822358,,f,Block S4
327,Block SS1,1.343524083,103.6812664,,f,Block SS1
328,Block SS2,1.342879551,103.6819792,,f,Block SS2
329,Block SS3,1.342662981,103.6825394,,f,Block SS3
330,Block SS4,1.343451579,103.6819662,,f,Block SS4
331,Boiler Room (Energy Systems Lab),1.347656901,103.6829116,,f,Boiler Room (Energy Systems Lab)
332,Briefing Room (CW3),1.345935161,103.6801409,,f,Briefing Room (CW3)
333,Briefing Room 1 (CESEL),1.34574888,103.6803477,,f,Briefing Room 1 (CESEL)
334,Briefing Room 2 (CESEL),1.345740714,103.6804719,,f,Briefing Room 2 (CESEL)
335,Briefing Room (MAE),1.34755961,103.682455,,f,Briefing Room (MAE)
336,Broadcast Practicum (WKWSCI),1.342143259,103.6801698,,f,Broadcast Practicum (WKWSCI)
337,BSL II Room 1,1.347533034,103.6829654,,f,BSL II Room 1
338,BSL II Room 2,1.347474987,103.6829707,,f,BSL II Room 2
339,BSL II Room 3,1.347432771,103.682976,,f,BSL II Room 3
340,Business Library,1.346542227,103.6800614,,f,Business Library
341,CADD Laboratory 1,1.345741456,103.6802111,,f,CADD Laboratory 1
342,CADD Research Support Group,1.345599993,103.6793343,,f,CADD Research Support Group
343,CAE Visualization Laboratory,1.347011876,103.682721,,f,CAE Visualization Laboratory
344,Campus Clubhouse,1.350788571,103.6879585,,f,Campus Clubhouse
345,Canteen A,1.34736266,103.6807378,,f,Canteen A
346,Career and Attachment Office @ South Spine,1.342647989,103.6825994,,f,Career and Attachment Office @ South Spine
347,Career Coaching Room (CAO),1.345280073,103.6834787,,f,Career Coaching Room (CAO)
348,Carpark 1 (NIE),1.349336538,103.6809361,,f,Carpark 1 (NIE)
349,Carpark 2 (NIE),1.347689196,103.6794091,,f,Carpark 2 (NIE)
350,Carpark 3 (NIE),1.347413606,103.6773427,,f,Carpark 3 (NIE)
351,Carpark 4 (NIE),1.349459349,103.6767224,,f,Carpark 4 (NIE)
352,Carpark 5 (NIE),1.350371441,103.6776858,,f,Carpark 5 (NIE)
353,Carpark 7 (NIE),1.350234038,103.6791038,,f,Carpark 7 (NIE)
354,Carpark A (Zone 1),1.344968903,103.6810357,,f,Carpark A (Zone 1)
355,Carpark ADM (Zone 2b),1.349154023,103.6834708,,f,Carpark ADM (Zone 2b)
356,Carpark B (Zone 1),1.343683328,103.6813575,,f,Carpark B (Zone 1)
357,Carpark C (Zone 2a),1.345560075,103.6817553,,f,Carpark C (Zone 2a)
358,Carpark Food Court 2 (Zone 3a),1.348637822,103.6857953,,f,Carpark Food Court 2 (Zone 3a)
359,Carpark D (Zone 2b),1.345333,103.679883,,f,Carpark D (Zone 2b)
360,Carpark E (Zone 2b),1.347534077,103.6822,,f,Carpark E (Zone 2b)
361,Carpark F (Zone 2b),1.346894624,103.6835621,,f,Carpark F (Zone 2b)
362,Carpark G (Zone 2a),1.34551488,103.6833957,,f,Carpark G (Zone 2a)
363,Carpark Graduate Hall 1 (Zone 3b),1.355800834,103.6870251,,f,Carpark Graduate Hall 1 (Zone 3b)
364,Carpark Graduate Hall 2 (Zone 3b),1.355610987,103.6857548,,f,Carpark Graduate Hall 2 (Zone 3b)
365,Carpark Hall 1 (Zone 3a),1.346603363,103.6870717,,f,Carpark Hall 1 (Zone 3a)
366,Carpark Hall 2 (Zone 3a),1.348005174,103.6849918,,f,Carpark Hall 2 (Zone 3a)
367,Carpark Hall 3 (Zone 3a),1.350749808,103.6818489,,f,Carpark Hall 3 (Zone 3a)
368,Carpark Hall 4 (Zone 3a),1.343952949,103.6861666,,f,Carpark Hall 4 (Zone 3a)
369,Carpark Hall 5 (Zone 3a),1.34450928,103.6877261,,f,Carpark Hall 5 (Zone 3a)
370,Carpark Hall 6 (Zone 3a),1.347993194,103.6868688,,f,Carpark Hall 6 (Zone 3a)
371,"Carpark H, Hall 7 (Zone 2a)",1.341004988,103.6806331,,f,"Carpark H, Hall 7 (Zone 2a)"
372,Carpark Hall 8 (Zone 3a),1.350930516,103.6849727,,f,Carpark Hall 8 (Zone 3a)
373,Carpark Hall 9 (Zone 3a),1.352670386,103.685228,,f,Carpark Hall 9 (Zone 3a)
374,Carpark Hall 10 (Zone 3b),1.354589916,103.6854455,,f,Carpark Hall 10 (Zone 3b)
375,Carpark Hall 11 (Zone 3b),1.355478763,103.6861263,,f,Carpark Hall 11 (Zone 3b)
376,Carpark Hall 12 (Zone 3b),1.350958883,103.680727,,f,Carpark Hall 12 (Zone 3b)
377,Carpark Hall 13 (Zone 3b),1.351796744,103.6814358,,f,Carpark Hall 13 (Zone 3b)
378,Carpark Hall 14 (Zone 3b),1.352542316,103.682104,,f,Carpark Hall 14 (Zone 3b)
379,Carpark Hall 15 (Zone 3b),1.353370192,103.6825348,,f,Carpark Hall 15 (Zone 3b)
380,Carpark Hall 16 (Zone 3a),1.350567034,103.6810921,,f,Carpark Hall 16 (Zone 3a)
381,Carpark Crescent & Pioneer Halls (Zone 3a Covered),1.34627888,103.6887872,,f,Carpark Crescent & Pioneer Halls (Zone 3a Covered)
382,Carpark I (Zone 2b),1.34220769,103.6839278,,f,Carpark I (Zone 2b)
383,Carpark J (Zone 2b),1.343633771,103.6844401,,f,Carpark J (Zone 2b)
384,"Carpark K, S&RC (Zone 3a)",1.348886229,103.6877965,,f,"Carpark K, S&RC (Zone 3a)"
385,Carpark L (Zone 3a),1.348651,103.686132,,f,Carpark L (Zone 3a)
386,"Carpark M, NEC (Zone 3b)",1.351088975,103.6876367,,f,"Carpark M, NEC (Zone 3b)"
387,"Carpark N, Nanyang House (Zone 3b)",1.349754819,103.6868867,,f,"Carpark N, Nanyang House (Zone 3b)"
388,Carpark N2.1 (Zone 2b),1.346908,103.67919,,f,Carpark N2.1 (Zone 2b)
389,Carpark Nanyang Auditorium (Zone 1),1.343568717,103.6798849,,f,Carpark Nanyang Auditorium (Zone 1)
390,Carpark Nanyang Circle (Zone 3a),1.345447095,103.6863888,,f,Carpark Nanyang Circle (Zone 3a)
391,Carpark Nanyang Heights (Zone 3b),1.351498872,103.6859605,,f,Carpark Nanyang Heights (Zone 3b)
392,Carpark Nanyang Meadows (Zone 3b),1.351510241,103.6891267,,f,Carpark Nanyang Meadows (Zone 3b)
393,Carpark Nanyang Terrace (Zone 3a),1.347414793,103.6857611,,f,Carpark Nanyang Terrace (Zone 3a)
394,Carpark Nanyang Valley (Zone 3a),1.346550571,103.6851294,,f,Carpark Nanyang Valley (Zone 3a)
395,Carpark Nanyang View (Zone 3b),1.352595968,103.6873191,,f,Carpark Nanyang View (Zone 3b)
396,Carpark P (Zone 2a),1.342646482,103.6807406,,f,Carpark P (Zone 2a)
397,Carpark Q (Zone 2a),1.344206306,103.682688,,f,Carpark Q (Zone 2a)
398,Carpark RTP (Zone 1),1.342885805,103.6796384,,f,Carpark RTP (Zone 1)
399,Carpark S (Zone 2a),1.34153608,103.6801363,,f,Carpark S (Zone 2a)
400,Carpark SBS (Zone 1),1.344630949,103.6791425,,f,Carpark SBS (Zone 1)
401,Carpark SPMS (Zone 2a),1.342587753,103.6817648,,f,Carpark SPMS (Zone 2a)
402,Catalogue Room (WKWSCI),1.342143259,103.6801698,,f,Catalogue Room (WKWSCI)
403,CATI Laboratory (HSS),1.344017522,103.6837103,,f,CATI Laboratory (HSS)
404,CATI Laboratory 1 (WKWSCI),1.342142425,103.6801895,,f,CATI Laboratory 1 (WKWSCI)
405,CATI Laboratory 2 (WKWSCI),1.342142425,103.6801895,,f,CATI Laboratory 2 (WKWSCI)
406,Cavitation Laboratory (PAP),1.341656633,103.6822629,,f,Cavitation Laboratory (PAP)
407,CBC Club,1.342234716,103.6817584,,f,CBC Club
408,CBE Lecture Theatre,1.34526082,103.6789864,,f,CBE Lecture Theatre
409,CEE Alumni-Students Corner,1.345734773,103.6804066,,f,CEE Alumni-Students Corner
410,CEE Laboratory,1.34651734,103.6791319,,f,CEE Laboratory
411,Cell Biology Laboratory 1 (SBS),1.344635375,103.6794004,,f,Cell Biology Laboratory 1 (SBS)
412,Cell Biology Laboratory 2 (SBS),1.344635375,103.6794004,,f,Cell Biology Laboratory 2 (SBS)
413,Cell Biology Laboratory 3 (SBS),1.344635375,103.6794004,,f,Cell Biology Laboratory 3 (SBS)
414,Cell Biology Laboratory 4 (SBS),1.344635375,103.6794004,,f,Cell Biology Laboratory 4 (SBS)
415,Cell Biology Laboratory 5 (SBS),1.344635375,103.6794004,,f,Cell Biology Laboratory 5 (SBS)
416,Cell Culture Room (Biological & Chemical Lab),1.347049259,103.6821104,,f,Cell Culture Room (Biological & Chemical Lab)
417,Cenetek Pte Ltd (ITTO),1.341087626,103.6832693,,f,Cenetek Pte Ltd (ITTO)
418,Central Chemical Store 1 (CBC),1.342234716,103.6817584,,f,Central Chemical Store 1 (CBC)
419,Central Chemical Store 2 (CBC),1.342234716,103.6817584,,f,Central Chemical Store 2 (CBC)
420,Central Environmental Science & Engineering Laboratory (CESEL),1.345741456,103.6801703,,f,Central Environmental Science & Engineering Laboratory (CESEL)
421,Central Facilities Laboratory,1.345316444,103.6793572,,f,Central Facilities Laboratory
422,Central Purchasing Unit (CPU),1.345634549,103.6806074,,f,Central Purchasing Unit (CPU)
423,Central Store (MSE B2 Research Focus Lab),1.346620705,103.6829567,,f,Central Store (MSE B2 Research Focus Lab)
424,Centre for Accounting & Auditing Research (CAAR),1.343449383,103.6825624,,f,Centre for Accounting & Auditing Research (CAAR)
425,Centre for Advance Media Technology,1.345305141,103.6808414,,f,Centre for Advance Media Technology
426,Centre for Advanced Bionanosystems,1.345323708,103.6803564,,f,Centre for Advanced Bionanosystems
427,Centre for Advanced Construction Studies (CACS),1.345596963,103.6796334,,f,Centre for Advanced Construction Studies (CACS)
428,Centre for Asia Pacific Technology Law & Policy (CAPTEL),1.344211002,103.6832961,,f,Centre for Asia Pacific Technology Law & Policy (CAPTEL)
429,Centre for Asian Art & Design (CAAD),1.349656095,103.6839994,,f,Centre for Asian Art & Design (CAAD)
430,Centre for Biomimetic Sensor Science (CBSS),1.343230456,103.6796425,,f,Centre for Biomimetic Sensor Science (CBSS)
431,Centre for Biotechnology (CBT),1.345357801,103.6790555,,f,Centre for Biotechnology (CBT)
432,Centre for Educational Development,1.347549677,103.6807729,,f,Centre for Educational Development
433,Centre for Excellence in Learning Innovation,1.349046339,103.6776993,,f,Centre for Excellence in Learning Innovation
434,Centre for High Performance Embedded Systems (CHiPES),1.34324299,103.6796333,,f,Centre for High Performance Embedded Systems (CHiPES)
435,Centre for Human Factors & Ergonomics (CHFE),1.347674681,103.6829267,,f,Centre for Human Factors & Ergonomics (CHFE)
436,Centre for Infrastructure Systems (CIS),1.345678266,103.6799501,,f,Centre for Infrastructure Systems (CIS)
437,Centre for IT Services (CITS),1.347110596,103.6800504,,f,Centre for IT Services (CITS)
438,Centre for IT Services (IT Service Counter),1.347576634,103.6812119,,f,Centre for IT Services (IT Service Counter)
439,Centre for Liberal Arts and Social Sciences (CLASS),1.343893534,103.6835607,,f,Centre for Liberal Arts and Social Sciences (CLASS)
440,Centre for Mechanics of Micro-Systems (CMMS),1.347674681,103.6829267,,f,Centre for Mechanics of Micro-Systems (CMMS)
441,Centre for Multilateralism Studies (CMS),1.344417894,103.6823355,,f,Centre for Multilateralism Studies (CMS)
442,Centre for Non-Traditional Security Studies (Centre for NTS Studies),1.344428102,103.6823508,,f,Centre for Non-Traditional Security Studies (Centre for NTS Studies)
443,Centre for Optical & Laser Engineering (COLE),1.347625485,103.6829301,,f,Centre for Optical & Laser Engineering (COLE)
444,Centre for Optical Fibre Technology (COFT),1.342993772,103.6803976,,f,Centre for Optical Fibre Technology (COFT)
445,Centre for Professional Image (NBS),1.344790498,103.6827089,,f,Centre for Professional Image (NBS)
446,Centre for Research in Financial Services (NBS),1.343377905,103.6825073,,f,Centre for Research in Financial Services (NBS)
447,Centre for Signal Processing,1.342410088,103.6810952,,f,Centre for Signal Processing
448,Centre for Transportation Studies (CTS),1.345648799,103.6791936,,f,Centre for Transportation Studies (CTS)
449,Centre for Transportation Studies (CTS) Seminar Room,1.345620632,103.6793134,,f,Centre for Transportation Studies (CTS) Seminar Room
450,Centre for Usable Space,1.345629128,103.6802755,,f,Centre for Usable Space
451,Centre of Excellence for National Security (CENS),1.344407686,103.6823201,,f,Centre of Excellence for National Security (CENS)
452,Ceramics Composite Characterisation  (Inorganic Materials Service Lab),1.346621453,103.6829539,,f,Ceramics Composite Characterisation  (Inorganic Materials Service Lab)
453,Ceramics Laboratory,1.346589907,103.682957,,f,Ceramics Laboratory
454,Ceramics Processing Laboratory,1.346178189,103.6823365,,f,Ceramics Processing Laboratory
455,Ceramics Processing Laboratory 2,1.346152402,103.6816821,,f,Ceramics Processing Laboratory 2
456,CG Laboratory 1.1 (ADM),1.349612256,103.6839264,,f,CG Laboratory 1.1 (ADM)
457,CG Laboratory 1.3,1.349612256,103.6839264,,f,CG Laboratory 1.3
458,Chamber Room (EEE),1.342017564,103.680765,,f,Chamber Room (EEE)
459,Characterisation Laboratory (EEE),1.342550213,103.6800244,,f,Characterisation Laboratory (EEE)
460,Characterisation Room (Ceramics Processing Lab),1.346178189,103.6823365,,f,Characterisation Room (Ceramics Processing Lab)
461,Cheers - NEC,1.35137264,103.687874,,f,Cheers - NEC
462,Cheers - North Spine,1.347105019,103.6808239,,f,Cheers - North Spine
463,Chemical BIology Laboratory 1 (SBS),1.344635375,103.6794004,,f,Chemical BIology Laboratory 1 (SBS)
464,Chemical BIology Laboratory 2 (SBS),1.344635375,103.6794004,,f,Chemical BIology Laboratory 2 (SBS)
465,Chemical BIology Laboratory 3 (SBS),1.344635375,103.6794004,,f,Chemical BIology Laboratory 3 (SBS)
466,Chemical BIology Laboratory 4 (SBS),1.344635375,103.6794004,,f,Chemical BIology Laboratory 4 (SBS)
467,Chemical BIology Laboratory 5 (SBS),1.344635375,103.6794004,,f,Chemical BIology Laboratory 5 (SBS)
468,Chemical BIology Laboratory 6 (SBS),1.344635375,103.6794004,,f,Chemical BIology Laboratory 6 (SBS)
469,Chemical Storage (CMMS - Micromachine Lab 1),1.347680788,103.6828071,,f,Chemical Storage (CMMS - Micromachine Lab 1)
470,Chemical Synthesis Room (Ceramics Processing Lab),1.346178189,103.6823365,,f,Chemical Synthesis Room (Ceramics Processing Lab)
471,Chinese Library,1.343876363,103.6823742,,f,Chinese Library
472,Choral Room (NIE),1.34808307,103.6781691,,f,Choral Room (NIE)
473,"Chromatogrohy Instrument, SMB And Packing",1.345316444,103.6793572,,f,"Chromatogrohy Instrument, SMB And Packing"
474,Chromatography Room (EL),1.345732328,103.6806052,,f,Chromatography Room (EL)
475,Cinema Room (ADM),1.349546438,103.6838237,,f,Cinema Room (ADM)
476,Classroom 1 (Design Lab),1.347556794,103.6824599,,f,Classroom 1 (Design Lab)
477,Classroom 2 (Design Lab),1.347556794,103.6824599,,f,Classroom 2 (Design Lab)
478,Classroom 3 (Design Lab),1.347556794,103.6824599,,f,Classroom 3 (Design Lab)
479,Classroom 4 (Design Lab),1.347556794,103.6824599,,f,Classroom 4 (Design Lab)
480,Classroom 5 (Design Lab),1.347556794,103.6824599,,f,Classroom 5 (Design Lab)
481,Classroom 6 (Design Lab),1.347556794,103.6824599,,f,Classroom 6 (Design Lab)
482,Classroom 7 (Design Lab),1.347556794,103.6824599,,f,Classroom 7 (Design Lab)
483,Classroom 8 (Design Lab),1.347556794,103.6824599,,f,Classroom 8 (Design Lab)
484,Classroom of the Future (NIE),1.34911226,103.6801504,,f,Classroom of the Future (NIE)
485,CleanTech One,1.355839,103.692234,,f,CleanTech One
486,Cluster Room 1 (PDCC),1.346151804,103.6817191,,f,Cluster Room 1 (PDCC)
487,Cluster Room 2 (PDCC),1.346151804,103.6817191,,f,Cluster Room 2 (PDCC)
488,CMMS - Micromachine Laboratory 1,1.347674681,103.6829267,,f,CMMS - Micromachine Laboratory 1
489,CMMS - Micromachine Laboratory 1 (Experiment Area),1.347674681,103.6829267,,f,CMMS - Micromachine Laboratory 1 (Experiment Area)
490,CNRS-International-NTU-Thales Research Alliance (CINTRA),1.34327682,103.6796088,,f,CNRS-International-NTU-Thales Research Alliance (CINTRA)
491,CNRS-International-NTU-Thales Research Alliance (CINTRA 05),1.343058562,103.6798992,,f,CNRS-International-NTU-Thales Research Alliance (CINTRA 05)
492,CN Yang Scholars Programme Office,1.342649137,103.6826008,,f,CN Yang Scholars Programme Office
493,Cold Room,1.345316444,103.6793572,,f,Cold Room
494,Cold Room (CBC),1.342234716,103.6817584,,f,Cold Room (CBC)
495,Cold Room (IESE),1.341087626,103.6832693,,f,Cold Room (IESE)
496,Cold Room 1 (SBS 02),1.344876157,103.6793605,,f,Cold Room 1 (SBS 02)
497,Cold Room 2 (SBS 02),1.344876157,103.6793605,,f,Cold Room 2 (SBS 02)
498,Cold Room 3 (SBS 02),1.344876157,103.6793605,,f,Cold Room 3 (SBS 02)
499,Cold Room 4 (SBS 02),1.344273781,103.6794561,,f,Cold Room 4 (SBS 02)
500,Cold Room 5 (SBS 02),1.344273781,103.6794561,,f,Cold Room 5 (SBS 02)
501,Cold Room 1 (SBS 03),1.344876157,103.6793605,,f,Cold Room 1 (SBS 03)
502,Cold Room 2 (SBS 03),1.344876157,103.6793605,,f,Cold Room 2 (SBS 03)
503,Cold Room 3 (SBS 03),1.344273781,103.6794561,,f,Cold Room 3 (SBS 03)
504,Cold Room 4 (SBS 03),1.344273781,103.6794561,,f,Cold Room 4 (SBS 03)
505,Cold Room 1 (SBS 04),1.344876157,103.6793605,,f,Cold Room 1 (SBS 04)
506,Cold Room 2 (SBS 04),1.344876157,103.6793605,,f,Cold Room 2 (SBS 04)
507,Cold Room 3 (SBS 04),1.344273781,103.6794561,,f,Cold Room 3 (SBS 04)
508,Cold Room 4 (SBS 04),1.344273781,103.6794561,,f,Cold Room 4 (SBS 04)
509,Cold Room 1 (SBS 05),1.344876157,103.6793605,,f,Cold Room 1 (SBS 05)
510,Cold Room 2 (SBS 05),1.344876157,103.6793605,,f,Cold Room 2 (SBS 05)
511,College of Business - Nanyang Business School (NBS),1.343364046,103.6824854,,f,College of Business - Nanyang Business School (NBS)
512,College of Engineering (CoE),1.345334528,103.680313,,f,College of Engineering (CoE)
513,College of Professional and Continuing Education (PaCE),1.344244675,103.6792329,,f,College of Professional and Continuing Education (PaCE)
514,College of Science (CoS),1.344357501,103.6797817,,f,College of Science (CoS)
515,Common Laboratory (PAP) - Bio-Physics,1.341656633,103.6822629,,f,Common Laboratory (PAP) - Bio-Physics
516,Common Meeting Room @ Level 2 (GSO & OIA),1.344505202,103.6813036,,f,Common Meeting Room @ Level 2 (GSO & OIA)
517,Common Meeting Room 1 @ Level 4 (LSO & OHR),1.344516069,103.6812838,,f,Common Meeting Room 1 @ Level 4 (LSO & OHR)
518,Common Meeting Room 2 @ Level 4 (LSO & OHR),1.344510648,103.6812919,,f,Common Meeting Room 2 @ Level 4 (LSO & OHR)
519,Common Room (HSS),1.343894017,103.6835617,,f,Common Room (HSS)
520,Communication & Information Library (CMIL),1.342271617,103.6803215,,f,Communication & Information Library (CMIL)
521,Communication Annexe (EEE B),1.341949028,103.6806716,,f,Communication Annexe (EEE B)
522,Communication Laboratory I (EEE),1.341979377,103.6806931,,f,Communication Laboratory I (EEE)
523,Communication Laboratory II (EEE),1.342552551,103.6800244,,f,Communication Laboratory II (EEE)
524,Communication Laboratory III (EEE),1.341979377,103.6806931,,f,Communication Laboratory III (EEE)
525,Communication Laboratory IV (EEE),1.343403748,103.6807964,,f,Communication Laboratory IV (EEE)
526,Communication Laboratory 1 (NBS),1.344385317,103.6823359,,f,Communication Laboratory 1 (NBS)
527,Communication Laboratory 2 (NBS),1.344385317,103.6823359,,f,Communication Laboratory 2 (NBS)
528,Communication Laboratory 3 (NBS),1.344385317,103.6823359,,f,Communication Laboratory 3 (NBS)
529,Communication Laboratory 4 (NBS),1.344385317,103.6823359,,f,Communication Laboratory 4 (NBS)
530,Communication Laboratory 5 (NBS),1.34476424,103.6826734,,f,Communication Laboratory 5 (NBS)
531,Communication Laboratory 6 (NBS),1.34476424,103.6826734,,f,Communication Laboratory 6 (NBS)
532,Communication Laboratory 7 (NBS),1.34476424,103.6826734,,f,Communication Laboratory 7 (NBS)
533,Communication Laboratory 8 (NBS),1.34476424,103.6826734,,f,Communication Laboratory 8 (NBS)
534,Communication Research Laboratory (EEE),1.341979377,103.6806931,,f,Communication Research Laboratory (EEE)
535,Communication Skills Laboratory 1 (HSS),1.345671673,103.6813327,,f,Communication Skills Laboratory 1 (HSS)
536,Communication Skills Laboratory 2 (HSS),1.345796755,103.6813271,,f,Communication Skills Laboratory 2 (HSS)
537,Communication Skills Laboratory 3 (HSS),1.345965232,103.6813254,,f,Communication Skills Laboratory 3 (HSS)
538,Communication Skills Laboratory 4 (HSS),1.346583803,103.6789912,,f,Communication Skills Laboratory 4 (HSS)
539,Communication Skills Laboratory 5 (HSS),1.346444813,103.6789947,,f,Communication Skills Laboratory 5 (HSS)
540,Communication Skills Laboratory 6 (HSS),1.343071849,103.6817297,,f,Communication Skills Laboratory 6 (HSS)
541,Communication Skills Laboratory 7 (HSS),1.343135402,103.6816563,,f,Communication Skills Laboratory 7 (HSS)
542,Communication Skills Laboratory 8 (HSS),1.343690515,103.681746,,f,Communication Skills Laboratory 8 (HSS)
543,Communication Skills Laboratory 9 (HSS),1.343739885,103.6816922,,f,Communication Skills Laboratory 9 (HSS)
544,Communication Skills Laboratory 10 (HSS),1.34355387,103.6818162,,f,Communication Skills Laboratory 10 (HSS)
545,Communication Skills Laboratory 10A (HSS),1.343590978,103.6817675,,f,Communication Skills Laboratory 10A (HSS)
546,Communication Skills Laboratory 10B (HSS),1.343607814,103.6817441,,f,Communication Skills Laboratory 10B (HSS)
547,Communication Skills Laboratory 11 (HSS),1.343592494,103.6818572,,f,Communication Skills Laboratory 11 (HSS)
548,Communication Skills Laboratory 12 (HSS),1.343553847,103.6818923,,f,Communication Skills Laboratory 12 (HSS)
549,Communication Skills Laboratory 13 (HSS),1.344037938,103.6837307,,f,Communication Skills Laboratory 13 (HSS)
550,Communication Skills Laboratory 14 (HSS),1.344070495,103.6837824,,f,Communication Skills Laboratory 14 (HSS)
551,Communication Skills Laboratory 15 (HSS),1.343516977,103.6819331,,f,Communication Skills Laboratory 15 (HSS)
552,Communication Skills Laboratory 16 (HSS),1.343419481,103.6820517,,f,Communication Skills Laboratory 16 (HSS)
553,Communication Skills Laboratory 17 (HSS),1.343350943,103.6821217,,f,Communication Skills Laboratory 17 (HSS)
554,Computational Intelligence Lab (CIL),1.346150839,103.6817217,,f,Computational Intelligence Lab (CIL)
555,Computational Modeling (EMRCL),1.345724648,103.6804052,,f,Computational Modeling (EMRCL)
556,Computational Nanoelectronics Laboratory (EEE),1.343403748,103.6807964,,f,Computational Nanoelectronics Laboratory (EEE)
557,Computational Research Laboratory (CBC),1.342237215,103.6817581,,f,Computational Research Laboratory (CBC)
558,Computational Server Room,1.345698797,103.6804032,,f,Computational Server Room
559,Computational Teaching Laboratory (PAP),1.341656892,103.6822602,,f,Computational Teaching Laboratory (PAP)
560,Computer Aided Engineering Laboratory 1,1.347011591,103.6822371,,f,Computer Aided Engineering Laboratory 1
561,Computer Aided Engineering Laboratory 2,1.347516731,103.6824523,,f,Computer Aided Engineering Laboratory 2
562,Computer Classroom (SBS),1.344876157,103.6793605,,f,Computer Classroom (SBS)
563,Computer Engineering Laboratory (EEE),1.341979377,103.6806931,,f,Computer Engineering Laboratory (EEE)
564,Computer Laboratory - BIE,1.345327602,103.6803341,,f,Computer Laboratory - BIE
565,Computer Laboratory - CBE B1,1.345316444,103.6793572,,f,Computer Laboratory - CBE B1
566,Computer Laboratory - CBE B2,1.345316444,103.6793572,,f,Computer Laboratory - CBE B2
567,Computer Laboratory 1 (HSS),1.343980113,103.683629,,f,Computer Laboratory 1 (HSS)
568,Computer Laboratory 2 (HSS),1.344057694,103.6837281,,f,Computer Laboratory 2 (HSS)
569,Computer Laboratory 3 (HSS),1.344113697,103.6837946,,f,Computer Laboratory 3 (HSS)
570,Computer Laboratory 4 (HSS),1.34394111,103.6836665,,f,Computer Laboratory 4 (HSS)
571,Computer Laboratory 5 (HSS),1.343983033,103.6837394,,f,Computer Laboratory 5 (HSS)
572,Computer Laboratory 6 (HSS),1.344020979,103.683798,,f,Computer Laboratory 6 (HSS)
573,Computer Laboratory (Teaching),1.345316444,103.6793572,,f,Computer Laboratory (Teaching)
574,Computer Networking Room (Acad Office),1.342143259,103.6801698,,f,Computer Networking Room (Acad Office)
575,Computer Resource Room (IT Service Unit 1),1.347018106,103.6830761,,f,Computer Resource Room (IT Service Unit 1)
576,Computer Room (BioE),1.345274262,103.6802282,,f,Computer Room (BioE)
577,Computer Room 1 (CW3),1.346053069,103.6801376,,f,Computer Room 1 (CW3)
578,Computer Room 2 (CW3),1.346112023,103.6801409,,f,Computer Room 2 (CW3)
579,Computer Room (Mechanics of Machine Lab),1.347018106,103.6816244,,f,Computer Room (Mechanics of Machine Lab)
580,Computer Room (RRC),1.346986954,103.6814188,,f,Computer Room (RRC)
581,Computer Security Laboratory,1.346150839,103.6817217,,f,Computer Security Laboratory
582,Computer Vision Laboratory (EEE),1.342550213,103.6800244,,f,Computer Vision Laboratory (EEE)
583,Computing Laboratory (EEE B),1.342392553,103.6810683,,f,Computing Laboratory (EEE B)
584,Computer Laboratory 1 (MAS),1.342033815,103.6823123,,f,Computer Laboratory 1 (MAS)
585,Computer Laboratory 2 (MAS),1.342033815,103.6823123,,f,Computer Laboratory 2 (MAS)
586,Computer Laboratory 3 (MAS),1.342033815,103.6823123,,f,Computer Laboratory 3 (MAS)
587,Computer Networks & Communications Lab (CNCL),1.346151804,103.6817191,,f,Computer Networks & Communications Lab (CNCL)
588,Computing Room (GL),1.345621483,103.6794592,,f,Computing Room (GL)
589,Concert Engineers Room (NYH),1.349968259,103.6868935,,f,Concert Engineers Room (NYH)
590,Conference Room (ADM),1.349546438,103.6838237,,f,Conference Room (ADM)
591,Conference Room (BioE),1.34529224,103.6803109,,f,Conference Room (BioE)
592,Conference Room (CACS),1.345596963,103.6797278,,f,Conference Room (CACS)
593,Conference Room (CBC),1.342234716,103.6817584,,f,Conference Room (CBC)
594,Conference Room (CBE),1.345316444,103.6793572,,f,Conference Room (CBE)
595,Conference Room (CoE),1.345313815,103.6802929,,f,Conference Room (CoE)
596,Conference Room (HSS),1.344085782,103.6838458,,f,Conference Room (HSS)
597,Conference Room (LWN Library),1.347575815,103.6808246,,f,Conference Room (LWN Library)
598,Conference Room (MRC),1.345599259,103.6798139,,f,Conference Room (MRC)
599,Conference Room 1 (NBS),1.343327169,103.682418,,f,Conference Room 1 (NBS)
600,Conference Room 2 (NBS),1.343394958,103.6824858,,f,Conference Room 2 (NBS)
601,Conference Room (NIE),1.348840115,103.6807144,,f,Conference Room (NIE)
602,Conference Room (OAFA),1.345324627,103.6835741,,f,Conference Room (OAFA)
603,Conference Room (OHR),1.345280073,103.6835614,,f,Conference Room (OHR)
604,Conference Room 1 @ Level 5 (PO),1.344492798,103.6812742,,f,Conference Room 1 @ Level 5 (PO)
605,Conference Room (PTRC),1.346111245,103.6791922,,f,Conference Room (PTRC)
606,Conference Room (SAF-NTU Academy),1.343845035,103.6823537,,f,Conference Room (SAF-NTU Academy)
607,Conference Room (WKWSCI),1.342143259,103.6801698,,f,Conference Room (WKWSCI)
608,Conference Room (SMA Office),1.347556794,103.6824599,,f,Conference Room (SMA Office)
609,Conference Room (SSP),1.345680923,103.6796522,,f,Conference Room (SSP)
610,Conference Room (VIRTUS),1.343929705,103.6823452,,f,Conference Room (VIRTUS)
611,Confocal Microscope (BioE),1.345310219,103.6802677,,f,Confocal Microscope (BioE)
612,Confocal Microscope (CBE),1.345316444,103.6793572,,f,Confocal Microscope (CBE)
613,Confocal Microscope (NMR / Central Instrument Lab),1.342234716,103.6817584,,f,Confocal Microscope (NMR / Central Instrument Lab)
614,Confocal Microscope 1 (SBS),1.344273781,103.6794561,,f,Confocal Microscope 1 (SBS)
615,Confocal Raman Room (Organic Materials Service Lab),1.346589907,103.682957,,f,Confocal Raman Room (Organic Materials Service Lab)
616,Consolidation Room for GW (CW4),1.345931886,103.679571,,f,Consolidation Room for GW (CW4)
617,Construction Annex (CA),1.345651162,103.6794132,,f,Construction Annex (CA)
618,Construction Technology Laboratory,1.346283239,103.6795569,,f,Construction Technology Laboratory
619,Construction Workshop (ADM),1.349546438,103.6838237,,f,Construction Workshop (ADM)
620,Control Engineering Laboratory (EEE),1.342974262,103.6804104,,f,Control Engineering Laboratory (EEE)
621,Control Systems Laboratory (EEE),1.342811166,103.6808943,,f,Control Systems Laboratory (EEE)
622,Cornell-Nanyang Institute of Hospitality Management,1.343417141,103.6825371,,f,Cornell-Nanyang Institute of Hospitality Management
623,Corporate Governance,1.344435882,103.6812176,,f,Corporate Governance
624,Corporate Services Centre (NBS),1.343804557,103.6829012,,f,Corporate Services Centre (NBS)
625,Courtyard (CBC),1.342080076,103.6827749,,f,Courtyard (CBC)
626,CPU Room (Computed Aided Engineering Lab 1),1.347043028,103.6822038,,f,CPU Room (Computed Aided Engineering Lab 1)
627,CRADLE,1.345311444,103.679282,,f,CRADLE
628,Creative Studio (HSS),1.344154352,103.6838569,,f,Creative Studio (HSS)
629,Crimson Room (NA),1.344003664,103.6805043,,f,Crimson Room (NA)
630,CRIT Room B1.1 (ADM),1.349546438,103.6838237,,f,CRIT Room B1.1 (ADM)
631,CRIT Room B1.2 (ADM),1.349546438,103.6838237,,f,CRIT Room B1.2 (ADM)
632,CRIT Room 1.1 (ADM),1.349546438,103.6838237,,f,CRIT Room 1.1 (ADM)
633,CRIT Room 1.2 (ADM),1.349546438,103.6838237,,f,CRIT Room 1.2 (ADM)
634,CRIT Room 1.3 (ADM),1.349546438,103.6838237,,f,CRIT Room 1.3 (ADM)
635,Crystal Growth Laboratory,1.346589907,103.682957,,f,Crystal Growth Laboratory
636,CS Club (WKWSCI),1.342143259,103.6801698,,f,CS Club (WKWSCI)
637,Culture Science Institute (NBS),1.344000471,103.6831406,,f,Culture Science Institute (NBS)
638,Curing Room for GW (CW4),1.34613495,103.6795645,,f,Curing Room for GW (CW4)
639,Cyber Security Lab (CSL),1.346196864,103.6829328,,f,Cyber Security Lab (CSL)
640,Cybercrime Analysis & Research Alliance @ NTU (CARA),1.346151804,103.6817191,,f,Cybercrime Analysis & Research Alliance @ NTU (CARA)
641,D1 Water Plant Room (CMMS - Micromachine Lab 1),1.347343063,103.6828229,,f,D1 Water Plant Room (CMMS - Micromachine Lab 1)
642,Dance Room (NIE),1.349044493,103.6773681,,f,Dance Room (NIE)
643,Dance Studio (NYH),1.349968259,103.6868935,,f,Dance Studio (NYH)
644,Dark Room (ADM),1.349546438,103.6838237,,f,Dark Room (ADM)
645,Dark Room (Bio-Physics Lab),1.341656892,103.6822602,,f,Dark Room (Bio-Physics Lab)
646,Dark Room (CBC),1.342234716,103.6817584,,f,Dark Room (CBC)
647,Dark Room 2 (CBC),1.342234716,103.6817584,,f,Dark Room 2 (CBC)
648,Dark Room (CBE),1.345316444,103.6793572,,f,Dark Room (CBE)
649,Dark Room (PAP),1.341656892,103.6822602,,f,Dark Room (PAP)
650,Dark Room (Microelectronics FA Lab),1.346621453,103.6829539,,f,Dark Room (Microelectronics FA Lab)
651,Dark Room 1 (SBS 02),1.344876157,103.6793605,,f,Dark Room 1 (SBS 02)
652,Dark Room 2 (SBS 02),1.344273781,103.6794561,,f,Dark Room 2 (SBS 02)
653,Dark Room 3 (SBS 02),1.344273781,103.6794561,,f,Dark Room 3 (SBS 02)
654,Dark Room 1 (SBS 03),1.344876157,103.6793605,,f,Dark Room 1 (SBS 03)
655,Dark Room 2 (SBS 03),1.344273781,103.6794561,,f,Dark Room 2 (SBS 03)
656,Dark Room 1 (SBS 04),1.344876157,103.6793605,,f,Dark Room 1 (SBS 04)
657,Dark Room 2 (SBS 04),1.344273781,103.6794561,,f,Dark Room 2 (SBS 04)
658,Dark Room (SBS 05),1.344876157,103.6793605,,f,Dark Room (SBS 05)
659,Dark Room & Changing Room (SEC),1.343097141,103.6811371,,f,Dark Room & Changing Room (SEC)
660,Dartec Room for GW (CW4),1.346177528,103.6795645,,f,Dartec Room for GW (CW4)
661,Data Acquisition Control Room (CW3),1.345977739,103.6801409,,f,Data Acquisition Control Room (CW3)
662,Data Centre (MAS),1.342032757,103.6823129,,f,Data Centre (MAS)
663,Data Management and Analytics Lab (DMAL),1.346196864,103.6829328,,f,Data Management and Analytics Lab (DMAL)
664,Data Processing Area (NMR / Central Instrument Lab),1.342234716,103.6817584,,f,Data Processing Area (NMR / Central Instrument Lab)
665,Daws 1 (WKWSCI),1.342143259,103.6801698,,f,Daws 1 (WKWSCI)
666,Daws 2 (WKWSCI),1.342143259,103.6801698,,f,Daws 2 (WKWSCI)
667,Decellurisation Area (Biological & Chemical Lab),1.347030567,103.682397,,f,Decellurisation Area (Biological & Chemical Lab)
668,Demo Room (Emerging Research Lab),1.346178189,103.6823365,,f,Demo Room (Emerging Research Lab)
669,Design Laboratory (MAE),1.347550904,103.6824493,,f,Design Laboratory (MAE)
670,Air Traffic Management Research Institute (ATMRI),1.347556794,103.6824599,,f,Air Traffic Management Research Institute (ATMRI)
671,Design Spec Room (Design Lab),1.347556794,103.6824599,,f,Design Spec Room (Design Lab)
672,Development Office,1.346890856,103.6802958,,f,Development Office
673,DHI-NTU Centre,1.345311444,103.6792784,,f,DHI-NTU Centre
674,DI Water Plant / Chiller Shed (EEE),1.343007957,103.6804346,,f,DI Water Plant / Chiller Shed (EEE)
675,Digital Photo Studio (WKWSCI),1.342143259,103.6801698,,f,Digital Photo Studio (WKWSCI)
676,Digital Signal Processing Laboratory (EEE),1.342816603,103.6814434,,f,Digital Signal Processing Laboratory (EEE)
677,Dining Room @ Level 6 (PO),1.344463505,103.681288,,f,Dining Room @ Level 6 (PO)
678,Dirty Room 1 - BioE B2,1.34529224,103.6803972,,f,Dirty Room 1 - BioE B2
679,Dirty Room 1 - BioE B4,1.345303027,103.680372,,f,Dirty Room 1 - BioE B4
680,Dirty Room - CBE 01,1.345316444,103.6793572,,f,Dirty Room - CBE 01
681,Dirty Room - CBE B1,1.345316444,103.6793572,,f,Dirty Room - CBE B1
682,Dirty Room - CBE B2,1.345316444,103.6793572,,f,Dirty Room - CBE B2
683,Dirty Room - CBE B3,1.345316444,103.6793572,,f,Dirty Room - CBE B3
684,Dirty Room - CBE B4,1.345316444,103.6793572,,f,Dirty Room - CBE B4
685,Discussion Room - CBE 01,1.345316444,103.6793572,,f,Discussion Room - CBE 01
686,Discussion Room - CBE B1,1.345316444,103.6793572,,f,Discussion Room - CBE B1
687,Discussion Room - CBE B2,1.345316444,103.6793572,,f,Discussion Room - CBE B2
688,Discussion Room - CBE B4,1.345316444,103.6793572,,f,Discussion Room - CBE B4
689,Discussion Room 1 - CBE B3,1.345316444,103.6793572,,f,Discussion Room 1 - CBE B3
690,Discussion Room 2 - CBE B3,1.345316444,103.6793572,,f,Discussion Room 2 - CBE B3
691,Discussion Room (BioE),1.34531741,103.68039,,f,Discussion Room (BioE)
692,Discussion Room (CAO),1.34528926,103.6835247,,f,Discussion Room (CAO)
693,Discussion Room (CoE),1.345306623,103.6803432,,f,Discussion Room (CoE)
694,Discussion Room 1 (EEE),1.343017859,103.6804053,,f,Discussion Room 1 (EEE)
695,Discussion Room 2 (EEE),1.342997139,103.6803811,,f,Discussion Room 2 (EEE)
696,Discussion Room 2 (HSS),1.344012669,103.6836782,,f,Discussion Room 2 (HSS)
697,Discussion Room 3 (HSS),1.344059626,103.6837517,,f,Discussion Room 3 (HSS)
698,Discussion Room 4 (HSS),1.344110667,103.6838231,,f,Discussion Room 4 (HSS)
699,Discussion Room 5 (HSS),1.344159665,103.6839027,,f,Discussion Room 5 (HSS)
700,Discussion Room (LIEN AID),1.345630114,103.6793305,,f,Discussion Room (LIEN AID)
701,Discussion Room (MAE Nexus),1.347074181,103.6827334,,f,Discussion Room (MAE Nexus)
702,Discussion Room (Microelectronics FA Lab),1.346621453,103.6829539,,f,Discussion Room (Microelectronics FA Lab)
703,Discussion Room (OAS),1.345280073,103.6835017,,f,Discussion Room (OAS)
704,Discussion Room 1 (PAP),1.341656892,103.6822602,,f,Discussion Room 1 (PAP)
705,Discussion Room 2 (PAP),1.341656892,103.6822602,,f,Discussion Room 2 (PAP)
706,Discussion Room (PDCC),1.346151804,103.6817191,,f,Discussion Room (PDCC)
707,Discussion Room (SAF-NTU Academy),1.343861969,103.682365,,f,Discussion Room (SAF-NTU Academy)
708,Discussion Room (SBS),1.344876157,103.6793605,,f,Discussion Room (SBS)
709,Discussion Room (SCSE),1.346178189,103.6823365,,f,Discussion Room (SCSE)
710,Discussion Room 1 (VIRTUS),1.343909948,103.6823537,,f,Discussion Room 1 (VIRTUS)
711,Discussion Room 2 (VIRTUS),1.34392406,103.6823396,,f,Discussion Room 2 (VIRTUS)
712,Discussion Room 3 (VIRTUS),1.343932527,103.6823537,,f,Discussion Room 3 (VIRTUS)
713,Distribution Room (NBS),1.343377905,103.6825073,,f,Distribution Room (NBS)
714,DO Utility Room,1.346886581,103.6803231,,f,DO Utility Room
715,Document Room (SMA Office),1.347556794,103.6824599,,f,Document Room (SMA Office)
716,Drawing Room 1 & 2,1.345590953,103.6792401,,f,Drawing Room 1 & 2
717,Drawing Room 1 (ADM),1.349546438,103.6838237,,f,Drawing Room 1 (ADM)
718,Drawing Room 2 (ADM),1.349546438,103.6838237,,f,Drawing Room 2 (ADM)
719,Drawing Storage (ADM),1.349612256,103.6839264,,f,Drawing Storage (ADM)
720,Dry Cell Laboratory (SPMS),1.344635375,103.6794004,,f,Dry Cell Laboratory (SPMS)
721,Dynamic & Fatigue Analysis (Materials Lab 1),1.347907698,103.6829443,,f,Dynamic & Fatigue Analysis (Materials Lab 1)
722,E-Learning Studio,1.346621453,103.6829539,,f,E-Learning Studio
723,E-Service Unit (Multimedia Lab I & II),1.346151804,103.6817191,,f,E-Service Unit (Multimedia Lab I & II)
724,E-Space @ MSE,1.346589907,103.682957,,f,E-Space @ MSE
725,Earth Observatory of Singapore,1.346556567,103.6806276,,f,Earth Observatory of Singapore
726,Eco Travel Pte Ltd (ITTO),1.341087626,103.6832693,,f,Eco Travel Pte Ltd (ITTO)
727,Economic Growth Centre (EGC),1.344241706,103.6837662,,f,Economic Growth Centre (EGC)
728,EEE Club Room,1.342802611,103.6814504,,f,EEE Club Room
729,EEE iHub,1.343151371,103.6812041,,f,EEE iHub
730,eLearning Response Centre (CED),1.346551345,103.6804311,,f,eLearning Response Centre (CED)
731,Electric Power Research Laboratory (EEE),1.341979377,103.6806931,,f,Electric Power Research Laboratory (EEE)
732,Electrical Fabrication (RRC),1.346974493,103.6816306,,f,Electrical Fabrication (RRC)
733,Electrical Workshop,1.345288645,103.6803252,,f,Electrical Workshop
734,Electromagnetic Effects Research Laboratory (EMERL),1.351747985,103.6790386,,f,Electromagnetic Effects Research Laboratory (EMERL)
735,Electron Ceramics Processing (Inorganic Materials Service Lab),1.346621453,103.6829539,,f,Electron Ceramics Processing (Inorganic Materials Service Lab)
736,Electron Microscope Laboratory,1.345327602,103.6803341,,f,Electron Microscope Laboratory
737,Electronic Laboratory (SPMS),1.344876157,103.6793605,,f,Electronic Laboratory (SPMS)
738,Electronic Packaging (Mechanics of Materials Lab),1.347556794,103.6824599,,f,Electronic Packaging (Mechanics of Materials Lab)
739,Electronic System Measurements Laboratory,1.342550213,103.6800244,,f,Electronic System Measurements Laboratory
740,Electronic Workshop (PAP),1.341656892,103.6822602,,f,Electronic Workshop (PAP)
741,Electronics Laboratory I (EEE),1.342550213,103.6800244,,f,Electronics Laboratory I (EEE)
742,Electronics Laboratory III (EEE),1.342816603,103.6814434,,f,Electronics Laboratory III (EEE)
743,Electrophonetic Deposition (Inorganic Materials Service Lab),1.346621453,103.6829539,,f,Electrophonetic Deposition (Inorganic Materials Service Lab)
744,Elemental Analysis  (NMR / Central Instrument Lab),1.342234716,103.6817584,,f,Elemental Analysis  (NMR / Central Instrument Lab)
745,EMC laboratory,1.343217384,103.6815765,,f,EMC laboratory
746,Emergent Materials & Advanced Devices Laboratory (PAP),1.341656633,103.6822629,,f,Emergent Materials & Advanced Devices Laboratory (PAP)
747,Emerging Technology Laboratory (ETL),1.346159469,103.6823085,,f,Emerging Technology Laboratory (ETL)
748,Emerging Technology Laboratory,1.345327602,103.6803341,,f,Emerging Technology Laboratory
749,Employee Wellbeing Centre,1.345399223,103.6828965,,f,Employee Wellbeing Centre
750,EMRC Laboratory D,1.345327602,103.6803341,,f,EMRC Laboratory D
751,Energetics Research Institute (EnRI),1.345722419,103.6802143,,f,Energetics Research Institute (EnRI)
752,Energy Research Institute @ NTU (ERI@N),1.343313659,103.6796138,,f,Energy Research Institute @ NTU (ERI@N)
753,Energy Research Institute @ NTU (ERI@N 02),1.343270641,103.6795485,,f,Energy Research Institute @ NTU (ERI@N 02)
754,Energy Storage Laboratory (MSE B2 Research Focus Lab),1.346589907,103.682957,,f,Energy Storage Laboratory (MSE B2 Research Focus Lab)
755,Energy Study Room,1.347697059,103.6829384,,f,Energy Study Room
756,Energy Systems Laboratory,1.347674681,103.6829267,,f,Energy Systems Laboratory
757,Engine Room (Energy Systems Lab),1.347700884,103.6829116,,f,Engine Room (Energy Systems Lab)
758,Engineering Software Teaching Laboratory 1 (EST Lab 1),1.345718803,103.6800072,,f,Engineering Software Teaching Laboratory 1 (EST Lab 1)
759,Engineering Software Teaching Laboratory 2 (EST Lab 2),1.345718803,103.6800072,,f,Engineering Software Teaching Laboratory 2 (EST Lab 2)
760,EnRI Annex,1.345270792,103.6803833,,f,EnRI Annex
761,EnRI Laboratory A,1.345327602,103.6803341,,f,EnRI Laboratory A
762,EnRI Laboratory B,1.345327602,103.6803341,,f,EnRI Laboratory B
763,EnRI Laboratory C,1.345327602,103.6803341,,f,EnRI Laboratory C
764,EnRI Labs - MSE B4,1.345668611,103.6804153,,f,EnRI Labs - MSE B4
765,EnRI Labs - MSE B5,1.345662246,103.6804217,,f,EnRI Labs - MSE B5
766,EnRI Store,1.345270792,103.6803833,,f,EnRI Store
767,Entrance Lobby (WKWSCI),1.342143259,103.6801698,,f,Entrance Lobby (WKWSCI)
768,Environment Laboratory (EL),1.345727864,103.6802609,,f,Environment Laboratory (EL)
769,Environment Laboratory 2 (EL2),1.345618609,103.6792484,,f,Environment Laboratory 2 (EL2)
770,Environment Laboratory 3 (EL3),1.345688985,103.6805471,,f,Environment Laboratory 3 (EL3)
771,Environmental Engineering Research Centre (EERC),1.343313139,103.6795995,,f,Environmental Engineering Research Centre (EERC)
772,Examination Hall A,1.344347481,103.680573,,f,Examination Hall A
773,Examination Hall B,1.344398509,103.6805081,,f,Examination Hall B
774,Examination Hall C,1.346515724,103.6792481,,f,Examination Hall C
775,Examination Hall D,1.349354444,103.6877597,,f,Examination Hall D
776,Examination Hall E,1.349277748,103.6877507,,f,Examination Hall E
777,Examination Hall F,1.349514868,103.6877971,,f,Examination Hall F
778,Examination Hall H / Function Room,1.349983206,103.6869189,,f,Examination Hall H / Function Room
779,Examination Hall J1 / Seminar Room 1,1.350012773,103.6869691,,f,Examination Hall J1 / Seminar Room 1
780,Examination Hall J2 / Seminar Room 2,1.350025668,103.6870022,,f,Examination Hall J2 / Seminar Room 2
781,Examination Hall K,1.342943608,103.6825155,,f,Examination Hall K
782,Examination Hall L,1.344909916,103.679642,,f,Examination Hall L
783,Examination Hall N - North Hill Function Hall,1.353652413,103.6881779,,f,Examination Hall N - North Hill Function Hall
784,Executive Classroom 1 (MAS),1.342032757,103.6823129,,f,Executive Classroom 1 (MAS)
785,Executive Classroom 2 (MAS),1.342032757,103.6823129,,f,Executive Classroom 2 (MAS)
786,Executive Deputy Chairman (RSIS) & Director (IDSS) Office,1.343921075,103.681985,,f,Executive Deputy Chairman (RSIS) & Director (IDSS) Office
787,Experiment Project Room (Design Lab),1.347556794,103.6824599,,f,Experiment Project Room (Design Lab)
788,Experiment Room 1 (HSS),1.343894017,103.6835617,,f,Experiment Room 1 (HSS)
789,Experiment Room 2 (HSS),1.343894017,103.6835617,,f,Experiment Room 2 (HSS)
790,Experiment Room 3 (HSS),1.343894017,103.6835617,,f,Experiment Room 3 (HSS)
791,Experiment Room 4 (HSS),1.343894017,103.6835617,,f,Experiment Room 4 (HSS)
792,Experiment Room 5 (HSS),1.343894017,103.6835617,,f,Experiment Room 5 (HSS)
793,Experimental Medicine Building (EMB),1.344254097,103.6788073,,f,Experimental Medicine Building (EMB)
794,Experimental Room 1 (AH),1.345147105,103.6783908,,f,Experimental Room 1 (AH)
795,Experimental Room 2 (AH),1.345147105,103.6783908,,f,Experimental Room 2 (AH)
796,Experimental Room 3 (AH),1.345147105,103.6783908,,f,Experimental Room 3 (AH)
797,Experimental Room (CMMS - Micromachine Lab 1),1.347538311,103.6828177,,f,Experimental Room (CMMS - Micromachine Lab 1)
798,Experimental Room (Energy Systems Lab),1.347748691,103.6829097,,f,Experimental Room (Energy Systems Lab)
799,Exploratory Research / Technical Centre,1.347595462,103.6825041,,f,Exploratory Research / Technical Centre
800,"EXQUISITUS, Centre for E-City",1.343053895,103.6816083,,f,"EXQUISITUS, Centre for E-City"
801,FA Laboratory (Microelectronics FA Lab),1.346621453,103.6829539,,f,FA Laboratory (Microelectronics FA Lab)
802,Fast Tech Pte Ltd (ITTO),1.341087626,103.6832693,,f,Fast Tech Pte Ltd (ITTO)
803,FDN 2D Silkprint / Darkroom (ADM),1.349546438,103.6838237,,f,FDN 2D Silkprint / Darkroom (ADM)
804,FDN 3D Studio 1 (ADM),1.349546438,103.6838237,,f,FDN 3D Studio 1 (ADM)
805,FDN 3D Studio 2 (ADM),1.349249016,103.683645,,f,FDN 3D Studio 2 (ADM)
806,FDN Office (ADM),1.349546438,103.6838237,,f,FDN Office (ADM)
807,Ferro Electric Testing (Inorganic Materials Service Lab),1.346621453,103.6829539,,f,Ferro Electric Testing (Inorganic Materials Service Lab)
808,FESEM,1.345270792,103.6803833,,f,FESEM
809,Filament Winding & Tape Laying Robot (MAE),1.347569987,103.6824665,,f,Filament Winding & Tape Laying Robot (MAE)
810,Final Year Project (ADM),1.349546438,103.6838237,,f,Final Year Project (ADM)
811,First & Second Year Bio Laboratory,1.345316444,103.6793572,,f,First & Second Year Bio Laboratory
812,First Year Laboratory A2,1.342814559,103.6814427,,f,First Year Laboratory A2
813,First Year Laboratory B,1.342814559,103.6814427,,f,First Year Laboratory B
814,First Year Laboratory C,1.342816603,103.6814434,,f,First Year Laboratory C
815,First Year M&E Balance Laboratory,1.345316444,103.6793572,,f,First Year M&E Balance Laboratory
816,Flight Mechanics & Control Laboratory,1.34751053,103.6824704,,f,Flight Mechanics & Control Laboratory
817,Flow Cytometry Room (SBS),1.344273781,103.6794561,,f,Flow Cytometry Room (SBS)
818,Fluid Mechanics Laboratory,1.347011591,103.6822371,,f,Fluid Mechanics Laboratory
819,Focus Group Room / Usability Laboratory,1.342142425,103.6801895,,f,Focus Group Room / Usability Laboratory
820,Food Court 1,1.346696144,103.6861193,,f,Food Court 1
821,Food Court 2,1.348526514,103.6855265,,f,Food Court 2
822,Food Court 4,1.344351851,103.685631,,f,Food Court 4
823,Food Court 9,1.352584078,103.6854104,,f,Food Court 9
824,Food Court 11,1.355085068,103.6862851,,f,Food Court 11
825,Food Court 13,1.351692714,103.6810104,,f,Food Court 13
826,Food Court 14,1.352879968,103.6822346,,f,Food Court 14
827,Food Court 16,1.350223261,103.6810747,,f,Food Court 16
828,Food Preparation Room @ Level 5 (PO),1.344548434,103.6813632,,f,Food Preparation Room @ Level 5 (PO)
829,Former GIPO,1.345316822,103.6834833,,f,Former GIPO
830,Formulation Laboratory (EMRCL),1.345715501,103.6803542,,f,Formulation Laboratory (EMRCL)
831,Foundation 2D Computer Laboratory (ADM),1.349612256,103.6839264,,f,Foundation 2D Computer Laboratory (ADM)
832,Foundation 2D Workshop (ADM),1.349546438,103.6838237,,f,Foundation 2D Workshop (ADM)
833,Foundation 4D Computer Laboratory (ADM),1.349546438,103.6838237,,f,Foundation 4D Computer Laboratory (ADM)
834,Foundation 4D Class / Workshop (ADM),1.349612256,103.6839264,,f,Foundation 4D Class / Workshop (ADM)
835,Foyer (HSS),1.343765633,103.683427,,f,Foyer (HSS)
836,Foyer (NA),1.343980154,103.6802835,,f,Foyer (NA)
837,Foyer (South Spine),1.342579951,103.682596,,f,Foyer (South Spine)
838,FPM Room,1.347556794,103.6824599,,f,FPM Room
839,Free Access Laboratory 1 (HSS),1.344012669,103.6837537,,f,Free Access Laboratory 1 (HSS)
840,Free Access Laboratory 2 (HSS),1.344108625,103.6838558,,f,Free Access Laboratory 2 (HSS)
841,Freezer Room (SPMS),1.344876157,103.6793605,,f,Freezer Room (SPMS)
842,Frequency Comb Room (MAE),1.347556794,103.6824599,,f,Frequency Comb Room (MAE)
843,Fridge Room (CBC 04),1.342234716,103.6817584,,f,Fridge Room (CBC 04)
844,Fridge Room (CBC 05),1.342234716,103.6817584,,f,Fridge Room (CBC 05)
845,Fuel Cell Laboratory (ERI@N),1.347016011,103.6816801,,f,Fuel Cell Laboratory (ERI@N)
846,Fuel Cells Laboratory 2 (ERI@N),1.347674681,103.6829267,,f,Fuel Cells Laboratory 2 (ERI@N)
847,Fuel Reforming Room (Energy Study Room),1.347676024,103.6829364,,f,Fuel Reforming Room (Energy Study Room)
848,Fullerton Healthcare,1.345391183,103.6828712,,f,Fullerton Healthcare
849,Function Room,1.342972325,103.6825003,,f,Function Room
850,Functon Room (NYH),1.349968259,103.6868935,,f,Functon Room (NYH)
851,Function Room @ Level 5 (PO),1.344532856,103.681312,,f,Function Room @ Level 5 (PO)
852,Furnace Room (Fuel Cell Lab),1.347024337,103.6817552,,f,Furnace Room (Fuel Cell Lab)
853,Furnace Room 1 (Ceramics Processing Lab),1.346178189,103.6823365,,f,Furnace Room 1 (Ceramics Processing Lab)
854,Fusion Spoon,1.35078903,103.6879596,,f,Fusion Spoon
855,FYP & Project Room (Heat Tranfer Lab),1.347011876,103.6815496,,f,FYP & Project Room (Heat Tranfer Lab)
856,FYP Room (Fluid Mechanics Lab),1.347043028,103.6821602,,f,FYP Room (Fluid Mechanics Lab)
857,Gallery (ADM),1.349546438,103.6838237,,f,Gallery (ADM)
858,Gallery Function & Exhibiion (ADM),1.349546438,103.6838237,,f,Gallery Function & Exhibiion (ADM)
859,Gallery Studio Annexe (ADM),1.349546438,103.6838237,,f,Gallery Studio Annexe (ADM)
860,gameLAB Annexe I,1.34341823,103.6795697,,f,gameLAB Annexe I
861,Gamesa Advanced Materials Research Centre,1.343266231,103.6796279,,f,Gamesa Advanced Materials Research Centre
862,Gas Cylinder Room (EL),1.345720079,103.6802316,,f,Gas Cylinder Room (EL)
863,Genetics Laboratory 1 (SBS),1.344635375,103.6794004,,f,Genetics Laboratory 1 (SBS)
864,Genetics Laboratory 2 (SBS),1.344635375,103.6794004,,f,Genetics Laboratory 2 (SBS)
865,Genetics Laboratory 3 (SBS),1.344635375,103.6794004,,f,Genetics Laboratory 3 (SBS)
866,Geology Room (GL),1.345608417,103.6793547,,f,Geology Room (GL)
867,Geotechnics Laboratory (GL),1.345646316,103.6792461,,f,Geotechnics Laboratory (GL)
868,Geotechnics Research Centre (GRC),1.345603483,103.6791073,,f,Geotechnics Research Centre (GRC)
869,Geotechnics Research Laboratory (GRL),1.345601012,103.6797173,,f,Geotechnics Research Laboratory (GRL)
870,Geotechnics Workshop,1.346241213,103.6795581,,f,Geotechnics Workshop
871,Give.sg Pte Ltd (ITTO),1.341087626,103.6832693,,f,Give.sg Pte Ltd (ITTO)
872,Glass Workshop (PAP),1.341656892,103.6822602,,f,Glass Workshop (PAP)
873,Global Foundries @ NTU,1.343391829,103.6808184,,f,Global Foundries @ NTU
874,Global Lounge (SAO),1.347529679,103.6807998,,f,Global Lounge (SAO)
875,Glove Box Room (CBC 05),1.342234716,103.6817584,,f,Glove Box Room (CBC 05)
876,Glove Box Room (CBC 06),1.342234716,103.6817584,,f,Glove Box Room (CBC 06)
877,Graduate Area (ADM),1.349546438,103.6838237,,f,Graduate Area (ADM)
878,Graduate Computer Laboratory 1 (NBS),1.344554081,103.6830014,,f,Graduate Computer Laboratory 1 (NBS)
879,Graduate Computer Laboratory 2 (NBS),1.344554081,103.6830014,,f,Graduate Computer Laboratory 2 (NBS)
880,Graduate Computer Laboratory 3 (NBS),1.344554081,103.6830014,,f,Graduate Computer Laboratory 3 (NBS)
881,Graduate Hall 1,1.355700617,103.6867694,,f,Graduate Hall 1
882,Graduate Hall 2,1.355836,103.685799,,f,Graduate Hall 2
883,Graduate Lounge (NBS),1.344544479,103.6830474,,f,Graduate Lounge (NBS)
884,Graduate Office (EEE A),1.343005882,103.6804615,,f,Graduate Office (EEE A)
885,Graduate Office (SCSE),1.34619402,103.6829487,,f,Graduate Office (SCSE)
886,Graduate Research Laboratory 1,1.345327602,103.6803341,,f,Graduate Research Laboratory 1
887,Graduate Research Laboratory 2,1.345270792,103.6803833,,f,Graduate Research Laboratory 2
888,Graduate Room 4,1.34619402,103.6829487,,f,Graduate Room 4
889,Graduate Room (MSE B3 Research Focus Lab),1.346621453,103.6829539,,f,Graduate Room (MSE B3 Research Focus Lab)
890,Graduate Student Lounge (WKWSCI),1.342143259,103.6801698,,f,Graduate Student Lounge (WKWSCI)
891,Graduate Student Office (HSS),1.343894017,103.6835617,,f,Graduate Student Office (HSS)
892,Graduate Student Office (Organic Materials Service Lab),1.346621453,103.6829539,,f,Graduate Student Office (Organic Materials Service Lab)
893,Graduate Student Office (WKWSCI),1.342143259,103.6801698,,f,Graduate Student Office (WKWSCI)
894,Group Research Laboratory 1 (HSS),1.343894017,103.6835617,,f,Group Research Laboratory 1 (HSS)
895,Group Research Laboratory 1A (HSS),1.343894017,103.6835617,,f,Group Research Laboratory 1A (HSS)
896,Group Research Laboratory 1B (HSS),1.343894017,103.6835617,,f,Group Research Laboratory 1B (HSS)
897,Group Research Laboratory 1C (HSS),1.343894017,103.6835617,,f,Group Research Laboratory 1C (HSS)
898,Group Research Laboratory 1D (HSS),1.343894017,103.6835617,,f,Group Research Laboratory 1D (HSS)
899,Group Research Laboratory 2 (HSS),1.343894017,103.6835617,,f,Group Research Laboratory 2 (HSS)
900,Group Research Laboratory 3 (HSS),1.343894017,103.6835617,,f,Group Research Laboratory 3 (HSS)
901,Gymnasium (NIE),1.349307128,103.6772368,,f,Gymnasium (NIE)
902,Hall of Residence 1 (Hall 1),1.34581705,103.6878493,,f,Hall of Residence 1 (Hall 1)
903,Hall of Residence 2 (Hall 2),1.348218401,103.6855042,,f,Hall of Residence 2 (Hall 2)
904,Hall of Residence 3 (Hall 3),1.350901066,103.6817681,,f,Hall of Residence 3 (Hall 3)
905,Hall of Residence 4 (Hall 4),1.344394627,103.686156,,f,Hall of Residence 4 (Hall 4)
906,Hall of Residence 5 (Hall 5),1.344487727,103.687599,,f,Hall of Residence 5 (Hall 5)
907,Hall of Residence 6 (Hall 6),1.348033357,103.6871119,,f,Hall of Residence 6 (Hall 6)
908,Hall of Residence 7 (Hall 7),1.340727771,103.6806238,,f,Hall of Residence 7 (Hall 7)
909,Hall of Residence 8 (Hall 8),1.350941686,103.6851519,,f,Hall of Residence 8 (Hall 8)
910,Hall of Residence 9 (Hall 9),1.352613719,103.6853754,,f,Hall of Residence 9 (Hall 9)
911,Hall of Residence 10 (Hall 10),1.354409273,103.6855511,,f,Hall of Residence 10 (Hall 10)
912,Hall of Residence 11 (Hall 11),1.354954619,103.6861756,,f,Hall of Residence 11 (Hall 11)
913,Hall of Residence 12 (Hall 12),1.351268841,103.6808674,,f,Hall of Residence 12 (Hall 12)
914,Hall of Residence 13 (Hall 13),1.351571658,103.6811489,,f,Hall of Residence 13 (Hall 13)
915,Hall of Residence 14 (Hall 14),1.352587192,103.6819491,,f,Hall of Residence 14 (Hall 14)
916,Hall of Residence 15 (Hall 15),1.353136846,103.6824562,,f,Hall of Residence 15 (Hall 15)
917,Hall of Residence 16 (Hall 16),1.350346764,103.6811892,,f,Hall of Residence 16 (Hall 16)
918,Crescent Hall of Residence,1.346114,103.688426,,f,Crescent Hall of Residence
919,Pioneer Hall of Residence,1.346053,103.689157,,f,Pioneer Hall of Residence
920,Binjai Hall of Residence,1.354105678,103.6875222,,f,Binjai Hall of Residence
921,Tanjong Hall of Residence,1.35392947,103.6880159,,f,Tanjong Hall of Residence
922,Banyan Hall of Residence,1.354032192,103.6884885,,f,Banyan Hall of Residence
923,Hall 1 - Block 12,1.345339019,103.6855795,,f,Hall 1 - Block 12
924,Hall 1 - Block 13,1.344831497,103.6871652,,f,Hall 1 - Block 13
925,Hall 1 - Block 14,1.345427065,103.6876714,,f,Hall 1 - Block 14
926,Hall 1 - Block 15,1.345987322,103.6872895,,f,Hall 1 - Block 15
927,Hall 1 - Block 16,1.346550405,103.6868903,,f,Hall 1 - Block 16
928,Hall 1 - Block 17,1.346136096,103.6875852,,f,Hall 1 - Block 17
929,Hall 1 - Block 18,1.345561244,103.687975,,f,Hall 1 - Block 18
930,Hall 2 - Block 1,1.347962769,103.6862771,,f,Hall 2 - Block 1
931,Hall 2 - Block 2,1.34799423,103.6854958,,f,Hall 2 - Block 2
932,Hall 2 - Block 3,1.347866246,103.6848337,,f,Hall 2 - Block 3
933,Hall 2 - Block 4,1.34788561,103.6844324,,f,Hall 2 - Block 4
934,Hall 2 - Block 5,1.347787984,103.6842938,,f,Hall 2 - Block 5
935,Hall 2 - Block 6,1.347601169,103.6841094,,f,Hall 2 - Block 6
936,Hall 2 - Block 7,1.348858272,103.684641,,f,Hall 2 - Block 7
937,Hall 2 - Block 8,1.348690666,103.6844678,,f,Hall 2 - Block 8
938,Hall 2 - Block 9,1.348547541,103.6843002,,f,Hall 2 - Block 9
939,Hall 2 - Block 10,1.348385585,103.6841175,,f,Hall 2 - Block 10
940,Hall 2 - Block 11,1.348225511,103.6839537,,f,Hall 2 - Block 11
941,Hall 3 - Block 3A,1.35127506,103.6820561,,f,Hall 3 - Block 3A
942,Hall 3 - Block 3B,1.351070634,103.6817697,,f,Hall 3 - Block 3B
943,Hall 3 - Block 3C,1.350800639,103.6815614,,f,Hall 3 - Block 3C
944,Hall 3 - Block 3D,1.35045191,103.6817982,,f,Hall 3 - Block 3D
945,Hall 3 - Block 3E,1.350622359,103.6820233,,f,Hall 3 - Block 3E
946,Hall 4 - Block 22,1.344648052,103.6856905,,f,Hall 4 - Block 22
947,Hall 4 - Block 23,1.34459391,103.6861083,,f,Hall 4 - Block 23
948,Hall 4 - Block 24,1.344560954,103.6865297,,f,Hall 4 - Block 24
949,Hall 4 - Block 25,1.34443619,103.6867157,,f,Hall 4 - Block 25
950,Hall 4 - Block 26,1.344176551,103.6861326,,f,Hall 4 - Block 26
951,Hall 4 - Block 27,1.344145214,103.6865707,,f,Hall 4 - Block 27
952,Hall 5 - Block 28,1.344403979,103.6870242,,f,Hall 5 - Block 28
953,Hall 5 - Block 29,1.344890802,103.687713,,f,Hall 5 - Block 29
954,Hall 5 - Block 30,1.344215856,103.6872972,,f,Hall 5 - Block 30
955,Hall 5 - Block 31,1.344713026,103.6879255,,f,Hall 5 - Block 31
956,Hall 6 - Block 32,1.34852185,103.6869723,,f,Hall 6 - Block 32
957,Hall 6 - Block 33,1.348434751,103.687509,,f,Hall 6 - Block 33
958,Hall 6 - Block 34,1.347568471,103.6868852,,f,Hall 6 - Block 34
959,Hall 6 - Block 35,1.347431938,103.6876667,,f,Hall 6 - Block 35
960,Hall 7 - Block 36,1.340572408,103.6801655,,f,Hall 7 - Block 36
961,Hall 7 - Block 37,1.34013456,103.6804645,,f,Hall 7 - Block 37
962,Hall 7 - Block 38,1.34014633,103.6809918,,f,Hall 7 - Block 38
963,Hall 7 - Block 39,1.340278156,103.6815261,,f,Hall 7 - Block 39
964,Hall 7 - Block 40,1.340581825,103.6810624,,f,Hall 7 - Block 40
965,Hall 8 - Block 41,1.350597209,103.6846346,,f,Hall 8 - Block 41
966,Hall 8 - Block 42,1.350985906,103.6847039,,f,Hall 8 - Block 42
967,Hall 8 - Block 43,1.351605108,103.6849359,,f,Hall 8 - Block 43
968,Hall 8 - Block 44,1.351644279,103.6855446,,f,Hall 8 - Block 44
969,Hall 9 - Block 45,1.352242577,103.6848149,,f,Hall 9 - Block 45
970,Hall 9 - Block 46,1.352645704,103.6848238,,f,Hall 9 - Block 46
971,Hall 9 - Block 47,1.353190072,103.6852416,,f,Hall 9 - Block 47
972,Hall 9 - Block 48,1.353172416,103.6857948,,f,Hall 9 - Block 48
973,Hall 10 - Block 49,1.353919574,103.6858898,,f,Hall 10 - Block 49
974,Hall 10 - Block 50,1.353846129,103.6854416,,f,Hall 10 - Block 50
975,Hall 10 - Block 51,1.354326349,103.6848277,,f,Hall 10 - Block 51
976,Hall 10 - Block 52,1.354768906,103.6851422,,f,Hall 10 - Block 52
977,Hall 11 - Block 53,1.354443109,103.6863719,,f,Hall 11 - Block 53
978,Hall 11 - Block 54,1.355328221,103.6857222,,f,Hall 11 - Block 54
979,Hall 11 - Block 55,1.355701099,103.6863267,,f,Hall 11 - Block 55
980,Hall 11 - Block 56,1.35529809,103.6868747,,f,Hall 11 - Block 56
981,Hall 12 - Block 57,1.351348439,103.6802911,,f,Hall 12 - Block 57
982,Hall 12 - Block 58,1.351022816,103.680419,,f,Hall 12 - Block 58
983,Hall 12 - Block 59,1.351186339,103.6805323,,f,Hall 12 - Block 59
984,Hall 12 - Block 60,1.350818678,103.6809753,,f,Hall 12 - Block 60
985,Hall 13 - Block 61,1.352192372,103.6809988,,f,Hall 13 - Block 61
986,Hall 13 - Block 62,1.352110448,103.6813067,,f,Hall 13 - Block 62
987,Hall 13 - Block 63,1.351955083,103.6811772,,f,Hall 13 - Block 63
988,Hall 13 - Block 64,1.351604333,103.6816033,,f,Hall 13 - Block 64
989,Hall 14 - Block 65,1.35251409,103.6816384,,f,Hall 14 - Block 65
990,Hall 14 - Block 65A,1.352761455,103.68191,,f,Hall 14 - Block 65A
991,Hall 14 - Block 66,1.352082653,103.6820026,,f,Hall 14 - Block 66
992,Hall 14 - Block 67,1.352327562,103.6824422,,f,Hall 14 - Block 67
993,Hall 14 - Block 68,1.352675641,103.6828318,,f,Hall 14 - Block 68
994,Hall 15 - Block 69,1.353311521,103.6827201,,f,Hall 15 - Block 69
995,Hall 15 - Block 70,1.353507375,103.682739,,f,Hall 15 - Block 70
996,Hall 15 - Block 71,1.353825639,103.6832267,,f,Hall 15 - Block 71
997,Hall 15 - Block 72,1.354081757,103.6835921,,f,Hall 15 - Block 72
998,Hall 16 - Block 16A,1.350534501,103.6814351,,f,Hall 16 - Block 16A
999,Hall 16 - Block 16B,1.350467002,103.6812287,,f,Hall 16 - Block 16B
1000,Hall 16 - Block 16C,1.35023172,103.6815816,,f,Hall 16 - Block 16C
1001,Hall 16 - Block 16D,1.349998367,103.6813888,,f,Hall 16 - Block 16D
1002,Hall 16 - Block 16E,1.349726443,103.6815219,,f,Hall 16 - Block 16E
1003,Crescent Hall of Residence - Block 17A,1.34646,103.688227,,f,Crescent Hall of Residence - Block 17A
1004,Crescent Hall of Residence - Block 17B,1.346347,103.688554,,f,Crescent Hall of Residence - Block 17B
1005,Crescent Hall of Residence - Block 17C,1.345852,103.688544,,f,Crescent Hall of Residence - Block 17C
1006,Crescent Hall of Residence - Block 17D,1.346148,103.688181,,f,Crescent Hall of Residence - Block 17D
1007,Pioneer Hall of Residence - Block 18A,1.346507,103.689378,,f,Pioneer Hall of Residence - Block 18A
1008,Pioneer Hall of Residence - Block 18B,1.346314,103.689024,,f,Pioneer Hall of Residence - Block 18B
1009,Pioneer Hall of Residence - Block 18C,1.345869,103.688981,,f,Pioneer Hall of Residence - Block 18C
1010,Pioneer Hall of Residence - Block 18D,1.346201,103.689389,,f,Pioneer Hall of Residence - Block 18D
1011,Binjai Hall of Residence - Block 19A,1.354389756,103.6875409,,f,Binjai Hall of Residence - Block 19A
1012,Binjai Hall of Residence - Block 19B,1.353828923,103.6876036,,f,Binjai Hall of Residence - Block 19B
1013,Tanjong Hall of Residence - Block 20A,1.35422564,103.6879568,,f,Tanjong Hall of Residence - Block 20A
1014,Tanjong Hall of Residence - Block 20B,1.353658394,103.6881395,,f,Tanjong Hall of Residence - Block 20B
1015,Banyan Hall of Residence - Block 21A,1.354415171,103.6883251,,f,Banyan Hall of Residence - Block 21A
1016,Banyan Hall of Residence - Block 21B,1.353779432,103.6886462,,f,Banyan Hall of Residence - Block 21B
1017,Hall of Fame (Aircraft Hangar),1.347556794,103.6824599,,f,Hall of Fame (Aircraft Hangar)
1018,Handball Court (NIE),1.350438,103.678175,,f,Handball Court (NIE)
1019,Hardware & Embedded Systems Lab (HESL),1.346159469,103.6823085,,f,Hardware & Embedded Systems Lab (HESL)
1020,Hardware Lab 1,1.346150839,103.6817217,,f,Hardware Lab 1
1021,Hardware Lab 2,1.346159469,103.6823085,,f,Hardware Lab 2
1022,Hardware Lab 3,1.346150839,103.6817217,,f,Hardware Lab 3
1023,Hardware Projects Lab,1.346158839,103.6823497,,f,Hardware Projects Lab
1024,HD Editing Suite 1 (ADM),1.349546438,103.6838237,,f,HD Editing Suite 1 (ADM)
1025,HD Editing Suite 2 (ADM),1.349546438,103.6838237,,f,HD Editing Suite 2 (ADM)
1026,HD Editing Suite 3 (ADM),1.349546438,103.6838237,,f,HD Editing Suite 3 (ADM)
1027,HD Editing Suite 4 (ADM),1.349546438,103.6838237,,f,HD Editing Suite 4 (ADM)
1028,HD Editing Suite 5 (ADM),1.349546438,103.6838237,,f,HD Editing Suite 5 (ADM)
1029,"Head, Division of BioEngineering",1.345270792,103.6803833,,f,"Head, Division of BioEngineering"
1030,Heat Pump Research Room (Inorganic Materials Service Lab),1.346621453,103.6829539,,f,Heat Pump Research Room (Inorganic Materials Service Lab)
1031,Heat Transfer Laboratory,1.347016011,103.6816801,,f,Heat Transfer Laboratory
1032,Heat Treatment Laboratory,1.346589907,103.682957,,f,Heat Treatment Laboratory
1033,Heat Treatment Laboratory II,1.346589907,103.682957,,f,Heat Treatment Laboratory II
1034,Heavy Workshop (ADM),1.349612256,103.6839264,,f,Heavy Workshop (ADM)
1035,High Computing Research Laboratory 1 (MAS),1.342033815,103.6823123,,f,High Computing Research Laboratory 1 (MAS)
1036,High Computing Research Laboratory 2 (MAS),1.342033815,103.6823123,,f,High Computing Research Laboratory 2 (MAS)
1037,High Performance Computing Centre,1.346439899,103.6812981,,f,High Performance Computing Centre
1038,High Resolution Transmission Electron Microscope (FACTS),1.346621453,103.6829539,,f,High Resolution Transmission Electron Microscope (FACTS)
1039,Hockey Pitch (NIE),1.349812,103.677832,,f,Hockey Pitch (NIE)
1040,Holding Room (WKWSCI),1.342143259,103.6801698,,f,Holding Room (WKWSCI)
1041,Hot Press & CIP Room (Ceramics Processing Lab),1.346178189,103.6823365,,f,Hot Press & CIP Room (Ceramics Processing Lab)
1042,Hot Room (Materials Lab 2),1.347556794,103.6824599,,f,Hot Room (Materials Lab 2)
1043,HRMS Laboratory (CBC),1.342237215,103.6817581,,f,HRMS Laboratory (CBC)
1044,"HSS, MSc (ME), MSc (MPE) Office (NBS)",1.343222614,103.6824219,,f,"HSS, MSc (ME), MSc (MPE) Office (NBS)"
1045,HSS Auditorium,1.343692073,103.6834731,,f,HSS Auditorium
1046,HT Switchroom,1.345270792,103.6803833,,f,HT Switchroom
1047,Human Development Laboratory  (HSS),1.343894017,103.6835617,,f,Human Development Laboratory  (HSS)
1048,Human Factors & Forensic Engineering Laboratory,1.347550904,103.6824493,,f,Human Factors & Forensic Engineering Laboratory
1049,Humanities & Social Sciences Library,1.344334951,103.6822613,,f,Humanities & Social Sciences Library
1050,Hydraulics Laboratory,1.346270138,103.6801329,,f,Hydraulics Laboratory
1051,Hydraulics Studio,1.345616428,103.6797425,,f,Hydraulics Studio
1052,Hydrogenation Room (CBC 04),1.342234716,103.6817584,,f,Hydrogenation Room (CBC 04)
1053,Hydrogenation Room 1 (CBC 05),1.342234716,103.6817584,,f,Hydrogenation Room 1 (CBC 05)
1054,Hydrogenation Room 2 (CBC 05),1.342234716,103.6817584,,f,Hydrogenation Room 2 (CBC 05)
1055,Hydrogenation Room 1 (CBC 06),1.342234716,103.6817584,,f,Hydrogenation Room 1 (CBC 06)
1056,Hydrogenation Room 2 (CBC 06),1.342234716,103.6817584,,f,Hydrogenation Room 2 (CBC 06)
1057,I & E Clubs & Societies Room (Student),1.342174231,103.6835683,,f,I & E Clubs & Societies Room (Student)
1058,I-Application Room (CeMNet),1.34619402,103.6829487,,f,I-Application Room (CeMNet)
1059,IC Design Laboratory I (EEE),1.342909839,103.6803456,,f,IC Design Laboratory I (EEE)
1060,IC Design Laboratory II (EEE),1.342862984,103.6802946,,f,IC Design Laboratory II (EEE)
1061,IC Design Laboratory III (EEE),1.342828156,103.6808734,,f,IC Design Laboratory III (EEE)
1062,ICIS Practicum Laboratory,1.342816603,103.6814434,,f,ICIS Practicum Laboratory
1063,ICRM (ITTO),1.341087626,103.6832693,,f,ICRM (ITTO)
1064,Ideas Playground (NTUitive),1.342174231,103.6835683,,f,Ideas Playground (NTUitive)
1065,IEM Laboratory (ADM),1.349612256,103.6839264,,f,IEM Laboratory (ADM)
1066,IM / Viscom Office / Store / Student Lounge (ADM),1.349546438,103.6838237,,f,IM / Viscom Office / Store / Student Lounge (ADM)
1067,IM Workshop (ADM),1.349612256,103.6839264,,f,IM Workshop (ADM)
1068,Image Processing Room (Transportation Lab),1.345701596,103.6793118,,f,Image Processing Room (Transportation Lab)
1069,Immunology Laboratory 1 (SBS),1.344635375,103.6794004,,f,Immunology Laboratory 1 (SBS)
1070,Immunology Laboratory 2 (SBS),1.344635375,103.6794004,,f,Immunology Laboratory 2 (SBS)
1071,Immunology Laboratory 3 (SBS),1.344635375,103.6794004,,f,Immunology Laboratory 3 (SBS)
1072,Impact & Testing (Mechanics of Materials Lab),1.347556794,103.6824599,,f,Impact & Testing (Mechanics of Materials Lab)
1073,Impact Chamber for CT (CW4),1.346013767,103.679571,,f,Impact Chamber for CT (CW4)
1074,In-Vitro Pte Ltd  (ITTO),1.341087626,103.6832693,,f,In-Vitro Pte Ltd  (ITTO)
1075,Incubation Centre (NTUV),1.342174231,103.6835683,,f,Incubation Centre (NTUV)
1076,Inert / Toxic Gas Room (CMMS - Micromachine Lab 1),1.34759108,103.6828124,,f,Inert / Toxic Gas Room (CMMS - Micromachine Lab 1)
1077,Inert Gas (Energy Systems Lab),1.347609093,103.6829135,,f,Inert Gas (Energy Systems Lab)
1078,INFINITUS (EEE),1.342410088,103.6810952,,f,INFINITUS (EEE)
1079,"INFINITUS, Infocomm Centre for Excellence",1.343250974,103.6796533,,f,"INFINITUS, Infocomm Centre for Excellence"
1080,InfoComm Research Laboratory (EEE),1.342788137,103.6809146,,f,InfoComm Research Laboratory (EEE)
1081,InfoComm Engineering Laboratory (EEE),1.342790222,103.680915,,f,InfoComm Engineering Laboratory (EEE)
1082,Information Communication Institute of Singapore (ICIS),1.342011334,103.6807463,,f,Information Communication Institute of Singapore (ICIS)
1083,Information Systems Research Laboratory (EEE),1.342816603,103.6814434,,f,Information Systems Research Laboratory (EEE)
1084,Information Management Research Centre (IMARC),1.343477295,103.6825982,,f,Information Management Research Centre (IMARC)
1085,Innovation@MAE Laboratory,1.347016011,103.6816801,,f,Innovation@MAE Laboratory
1086,Innovation and Technology Transfer Office (ITTO),1.341865494,103.6835722,,f,Innovation and Technology Transfer Office (ITTO)
1087,Innovation Centre (Block 1),1.342256993,103.6835482,,f,Innovation Centre (Block 1)
1088,Innovation Centre (Block 2),1.341194953,103.6832341,,f,Innovation Centre (Block 2)
1089,Innovation Room (CoE),1.345270792,103.6803833,,f,Innovation Room (CoE)
1090,Inorganic Materials Service Laboratory,1.346596206,103.6829788,,f,Inorganic Materials Service Laboratory
1091,Inorganic Oxidisers Laboratory (EMRCL),1.34563057,103.6804208,,f,Inorganic Oxidisers Laboratory (EMRCL)
1092,Institute for Media Innovation (IMI),1.343204759,103.679556,,f,Institute for Media Innovation (IMI)
1093,Institute for Media Innovation (IMI 02),1.343266231,103.679747,,f,Institute for Media Innovation (IMI 02)
1094,Institute for Sports Research (ISR),1.347675467,103.6829263,,f,Institute for Sports Research (ISR)
1095,Institute of Advanced Studies,1.351376508,103.6879265,,f,Institute of Advanced Studies
1096,Institute of Catastrophe Risk Management (ICRM),1.345643574,103.6798116,,f,Institute of Catastrophe Risk Management (ICRM)
1097,Institute of Defence and Strategic Studies (IDSS),1.34443831,103.6823635,,f,Institute of Defence and Strategic Studies (IDSS)
1098,Institute of Environmental Science and Engineering Pte Ltd (IESE 01),1.341087626,103.6832693,,f,Institute of Environmental Science and Engineering Pte Ltd (IESE 01)
1099,Institute of Environmental Science and Engineering Pte Ltd (IESE),1.341087626,103.6832693,,f,Institute of Environmental Science and Engineering Pte Ltd (IESE)
1100,Institute on Asian Consumer Insight (ACI),1.344405203,103.6823534,,f,Institute on Asian Consumer Insight (ACI)
1101,Instrument Laboratory 2 (CBC),1.342237215,103.6817581,,f,Instrument Laboratory 2 (CBC)
1102,Instrument Laboratory - CBE 01,1.345316444,103.6793572,,f,Instrument Laboratory - CBE 01
1103,Instrument Laboratory - CBE B1,1.345316444,103.6793572,,f,Instrument Laboratory - CBE B1
1104,Instrument Laboratory - CBE B2,1.345316444,103.6793572,,f,Instrument Laboratory - CBE B2
1105,Instrument Laboratory - CBE B2-11d,1.345316444,103.6793572,,f,Instrument Laboratory - CBE B2-11d
1106,Instrument Laboratory - CBE B3,1.345316444,103.6793572,,f,Instrument Laboratory - CBE B3
1107,Instrument Laboratory - CBE B4,1.345316444,103.6793572,,f,Instrument Laboratory - CBE B4
1108,Instrument Room (CBC),1.342234716,103.6817584,,f,Instrument Room (CBC)
1109,Instrument Room 1 (CBC 04),1.342234716,103.6817584,,f,Instrument Room 1 (CBC 04)
1110,Instrument Room 2 (CBC 04),1.342234716,103.6817584,,f,Instrument Room 2 (CBC 04)
1111,Instrument Room 3 (CBC 04),1.342234716,103.6817584,,f,Instrument Room 3 (CBC 04)
1112,Instrument Room 4 (CBC 04),1.342234716,103.6817584,,f,Instrument Room 4 (CBC 04)
1113,Instrument Room 5 (CBC 04),1.342234716,103.6817584,,f,Instrument Room 5 (CBC 04)
1114,Instrument Room 1 (CBC 05),1.342234716,103.6817584,,f,Instrument Room 1 (CBC 05)
1115,Instrument Room 2 (CBC 05),1.342234716,103.6817584,,f,Instrument Room 2 (CBC 05)
1116,Instrument Room 3 (CBC 05),1.342234716,103.6817584,,f,Instrument Room 3 (CBC 05)
1117,Instrument Room 4 (CBC 05),1.342234716,103.6817584,,f,Instrument Room 4 (CBC 05)
1118,Instrument Room 5 (CBC 05),1.342234716,103.6817584,,f,Instrument Room 5 (CBC 05)
1119,Instrument Room 6 (CBC 05),1.342234716,103.6817584,,f,Instrument Room 6 (CBC 05)
1120,Instrument Room 1 (CBC 06),1.342234716,103.6817584,,f,Instrument Room 1 (CBC 06)
1121,Instrument Room 2 (CBC 06),1.342234716,103.6817584,,f,Instrument Room 2 (CBC 06)
1122,Instrument Room 3 (CBC 06),1.342234716,103.6817584,,f,Instrument Room 3 (CBC 06)
1123,Instrument Room 4 (CBC 06),1.342234716,103.6817584,,f,Instrument Room 4 (CBC 06)
1124,Instrument Room 5 (CBC 06),1.342234716,103.6817584,,f,Instrument Room 5 (CBC 06)
1125,Instrument Room 6 (CBC 06),1.342234716,103.6817584,,f,Instrument Room 6 (CBC 06)
1126,Instrument Room (CBE),1.345316444,103.6793572,,f,Instrument Room (CBE)
1127,Instrument Room (EL),1.345736412,103.6803908,,f,Instrument Room (EL)
1128,Instrument Room (MSE B2 Research Focus Lab),1.346621453,103.6829539,,f,Instrument Room (MSE B2 Research Focus Lab)
1129,Instrument Room (Physical Analytical Lab),1.342234716,103.6817584,,f,Instrument Room (Physical Analytical Lab)
1130,Instrument Room (SBS),1.344876157,103.6793605,,f,Instrument Room (SBS)
1131,Instrument Room 1 (SBS 02),1.344876157,103.6793605,,f,Instrument Room 1 (SBS 02)
1132,Instrument Room 2 (SBS 02),1.344876157,103.6793605,,f,Instrument Room 2 (SBS 02)
1133,Instrument Room 3 (SBS 02),1.344876157,103.6793605,,f,Instrument Room 3 (SBS 02)
1134,Instrument Room 4 (SBS 02),1.344876157,103.6793605,,f,Instrument Room 4 (SBS 02)
1135,Instrument Room 5 (SBS 02),1.344876157,103.6793605,,f,Instrument Room 5 (SBS 02)
1136,Instrument Room 6 (SBS 02),1.344876157,103.6793605,,f,Instrument Room 6 (SBS 02)
1137,Instrument Room 7 (SBS 02),1.344876157,103.6793605,,f,Instrument Room 7 (SBS 02)
1138,Instrument Room 8 (SBS 02),1.344876157,103.6793605,,f,Instrument Room 8 (SBS 02)
1139,Instrument Room 9 (SBS 02),1.344876157,103.6793605,,f,Instrument Room 9 (SBS 02)
1140,Instrument Room 10 (SBS 02),1.344876157,103.6793605,,f,Instrument Room 10 (SBS 02)
1141,Instrument Room 11 (SBS 02),1.344273781,103.6794561,,f,Instrument Room 11 (SBS 02)
1142,Instrument Room 12 (SBS 02),1.344273781,103.6794561,,f,Instrument Room 12 (SBS 02)
1143,Instrument Room 13 (SBS 02),1.344273781,103.6794561,,f,Instrument Room 13 (SBS 02)
1144,Instrument Room 14 (SBS 02),1.344273781,103.6794561,,f,Instrument Room 14 (SBS 02)
1145,Instrument Room 15 (SBS 02),1.344273781,103.6794561,,f,Instrument Room 15 (SBS 02)
1146,Instrument Room 16 (SBS 02),1.344273781,103.6794561,,f,Instrument Room 16 (SBS 02)
1147,Instrument Room 17 (SBS 02),1.344273781,103.6794561,,f,Instrument Room 17 (SBS 02)
1148,Instrument Room 18 (SBS 02),1.344273781,103.6794561,,f,Instrument Room 18 (SBS 02)
1149,Instrument Room 19 (SBS 02),1.344273781,103.6794561,,f,Instrument Room 19 (SBS 02)
1150,Instrument Room 20 (SBS 02),1.344273781,103.6794561,,f,Instrument Room 20 (SBS 02)
1151,Instrument Room 21 (SBS 02),1.344876157,103.6793605,,f,Instrument Room 21 (SBS 02)
1152,Instrument Room 22 (SBS 02),1.344876157,103.6793605,,f,Instrument Room 22 (SBS 02)
1153,Instrument Room 23 (SBS 02),1.344876157,103.6793605,,f,Instrument Room 23 (SBS 02)
1154,Instrument Room 24 (SBS 02),1.344876157,103.6793605,,f,Instrument Room 24 (SBS 02)
1155,Instrument Room 1 (SBS 03),1.344876157,103.6793605,,f,Instrument Room 1 (SBS 03)
1156,Instrument Room 2 (SBS 03),1.344876157,103.6793605,,f,Instrument Room 2 (SBS 03)
1157,Instrument Room 3 (SBS 03),1.344876157,103.6793605,,f,Instrument Room 3 (SBS 03)
1158,Instrument Room 4 (SBS 03),1.344876157,103.6793605,,f,Instrument Room 4 (SBS 03)
1159,Instrument Room 5 (SBS 03),1.344876157,103.6793605,,f,Instrument Room 5 (SBS 03)
1160,Instrument Room 6 (SBS 03),1.344876157,103.6793605,,f,Instrument Room 6 (SBS 03)
1161,Instrument Room 7 (SBS 03n),1.344876157,103.6793605,,f,Instrument Room 7 (SBS 03n)
1162,Instrument Room 7 (SBS 03s),1.344273781,103.6794561,,f,Instrument Room 7 (SBS 03s)
1163,Instrument Room 8 (SBS 03n),1.344876157,103.6793605,,f,Instrument Room 8 (SBS 03n)
1164,Instrument Room 8 (SBS 03s),1.344273781,103.6794561,,f,Instrument Room 8 (SBS 03s)
1165,Instrument Room 9 (SBS 03),1.344876157,103.6793605,,f,Instrument Room 9 (SBS 03)
1166,Instrument Room 10 (SBS 03),1.344876157,103.6793605,,f,Instrument Room 10 (SBS 03)
1167,Instrument Room 11 (SBS 03),1.344876157,103.6793605,,f,Instrument Room 11 (SBS 03)
1168,Instrument Room 12 (SBS 03),1.344876157,103.6793605,,f,Instrument Room 12 (SBS 03)
1169,Instrument Room 15 (SBS 03),1.344273781,103.6794561,,f,Instrument Room 15 (SBS 03)
1170,Instrument Room 16 (SBS 03),1.344273781,103.6794561,,f,Instrument Room 16 (SBS 03)
1171,Instrument Room 17 (SBS 03),1.344273781,103.6794561,,f,Instrument Room 17 (SBS 03)
1172,Instrument Room 18 (SBS 03),1.344273781,103.6794561,,f,Instrument Room 18 (SBS 03)
1173,Instrument Room 19 (SBS 03),1.344273781,103.6794561,,f,Instrument Room 19 (SBS 03)
1174,Instrument Room 20 (SBS 03),1.344273781,103.6794561,,f,Instrument Room 20 (SBS 03)
